<?xml version="1.0" encoding="UTF-8" standalone="no"?><Locations><Location ADDR="Auli, 3252, Switzerland" LAT="47.0916244" LNG="7.290623399999999" NAME="Äuli"/><Location ADDR="Aadorf, Switzerland" LAT="47.4884348" LNG="8.9035411" NAME="Aadorf"/><Location ADDR="Bahnhofstrasse, 8355 Aadorf, Switzerland" LAT="47.4885257" LNG="8.9031518" NAME="Aadorf, Bahnhof"/><Location ADDR="Morgental, 9546 Wängi, Switzerland" LAT="47.4798616" LNG="8.956223099999999" NAME="Aadorf, Morgental"/><Location ADDR="Aadorf, Zentrum, 8355 Aadorf, Switzerland" LAT="47.491082" LNG="8.899410999999999" NAME="Aadorf, Zentrum"/><Location ADDR="Aarau, Switzerland" LAT="47.390434" LNG="8.0457015" NAME="Aarau"/><Location ADDR="Aaraustraße, 72762 Reutlingen, Germany" LAT="48.4863897" LNG="9.197851499999999" NAME="Aarau CT"/><Location ADDR="Aarau, Switzerland" LAT="47.390434" LNG="8.0457015" NAME="Aarau GB"/><Location ADDR="Aarau, Switzerland" LAT="47.390434" LNG="8.0457015" NAME="Aarau Ost (Abzw)"/><Location ADDR="Aarau Rohr, Gemeindehaus, 5032 Aarau, Switzerland" LAT="47.403387" LNG="8.084922" NAME="Aarau Rohr, Gemeindehaus"/><Location ADDR="Quellhölzli, 5032 Aarau, Switzerland" LAT="47.4023147" LNG="8.072365399999999" NAME="Aarau Rohr, Quellhölzli"/><Location ADDR="Rigistrasse, 5032 Aarau, Switzerland" LAT="47.3999027" LNG="8.080451199999999" NAME="Aarau Rohr, Rigistrasse"/><Location ADDR="Salamattweg, 5032 Aarau, Switzerland" LAT="47.4033075" LNG="8.076519" NAME="Aarau Rohr, Salamatt"/><Location ADDR="Unterdorf, 5105 Auenstein, Switzerland" LAT="47.4158591" LNG="8.140263" NAME="Aarau Rohr, Unterdorf"/><Location ADDR="Aarau, Switzerland" LAT="47.390434" LNG="8.0457015" NAME="Aarau WSB"/><Location ADDR="Aarenaustrasse, Aarau, Switzerland" LAT="47.40130019999999" LNG="8.0488218" NAME="Aarau, Aarenau"/><Location ADDR="Aarepark, 5000 Aarau, Switzerland" LAT="47.3955305" LNG="8.038928199999999" NAME="Aarau, Aarepark"/><Location ADDR="Achenbergstrasse, 5000 Aarau, Switzerland" LAT="47.3991094" LNG="8.0468821" NAME="Aarau, Achenbergstrasse"/><Location ADDR="Allmendweg, 5000 Aarau, Switzerland" LAT="47.3875326" LNG="8.0354011" NAME="Aarau, Allmendweg"/><Location ADDR="Aarau, Alte Badanstalt, 5000 Aarau, Switzerland" LAT="47.395409" LNG="8.031258" NAME="Aarau, Alte Badanstalt"/><Location ADDR="Bahnhofstrasse, 5000 Aarau, Switzerland" LAT="47.3918224" LNG="8.0499458" NAME="Aarau, Bahnhof"/><Location ADDR="Aarau, Bavaria, 5000 Aarau, Switzerland" LAT="47.390303" LNG="8.063122" NAME="Aarau, Bavaria"/><Location ADDR="Aarau, Berufsschule, 5000 Aarau, Switzerland" LAT="47.397029" LNG="8.05504" NAME="Aarau, Berufsschule"/><Location ADDR="Binzenhofstrasse, 5000 Aarau, Switzerland" LAT="47.3808498" LNG="8.0483487" NAME="Aarau, Binzenhofstrasse"/><Location ADDR="Aarau, Buchenhof, 5000 Aarau, Switzerland" LAT="47.387545" LNG="8.050706" NAME="Aarau, Buchenhof"/><Location ADDR="Dammweg, 5000 Aarau, Switzerland" LAT="47.3865285" LNG="8.0337819" NAME="Aarau, Dammweg"/><Location ADDR="Delfterstrasse, Aarau, Switzerland" LAT="47.39934969999999" LNG="8.0610169" NAME="Aarau, Delfterstrasse"/><Location ADDR="Dossenstrasse, 5000 Aarau, Switzerland" LAT="47.3819671" LNG="8.0469412" NAME="Aarau, Dossenstrasse"/><Location ADDR="Dufourstrasse, 5000 Aarau, Switzerland" LAT="47.3854879" LNG="8.054807799999999" NAME="Aarau, Dufourstrasse"/><Location ADDR="Friedhof, 5502 Hunzenschwil, Switzerland" LAT="47.3841372" LNG="8.120979799999999" NAME="Aarau, Friedhof"/><Location ADDR="Gaisweg, 5000 Aarau, Switzerland" LAT="47.391152" LNG="8.0584142" NAME="Aarau, Gais"/><Location ADDR="General Guisan-Strasse, 5000 Aarau, Switzerland" LAT="47.3790299" LNG="8.054323" NAME="Aarau, General Guisanstrasse"/><Location ADDR="Hans Hässig-Strasse, 5000 Aarau, Switzerland" LAT="47.379981" LNG="8.0493809" NAME="Aarau, Hans Hässigstrasse"/><Location ADDR="Heinerich Wirri-Strasse, 5000 Aarau, Switzerland" LAT="47.3834756" LNG="8.0532062" NAME="Aarau, Heinrich Wirristrasse"/><Location ADDR="Herzogstrasse, 5000 Aarau, Switzerland" LAT="47.3900212" LNG="8.0558707" NAME="Aarau, Herzogplatz"/><Location ADDR="Aarau, Hirslanden Klinik, 5000 Aarau, Switzerland" LAT="47.391075" LNG="8.041342" NAME="Aarau, Hirslanden Klinik"/><Location ADDR="Holzstrasse, Schönenwerd, Switzerland" LAT="47.3680684" LNG="8.006364399999999" NAME="Aarau, Holzmarkt"/><Location ADDR="Im Ifang, 5000 Aarau, Switzerland" LAT="47.386849" LNG="8.0360591" NAME="Aarau, Ifang"/><Location ADDR="Käfergrund, 5000 Aarau, Switzerland" LAT="47.3797559" LNG="8.053815" NAME="Aarau, Käfergrund"/><Location ADDR="Kasinopark, Kasinostrasse, 5000 Aarau, Switzerland" LAT="47.3926551" LNG="8.0463162" NAME="Aarau, Kasinopark"/><Location ADDR="Aarau, Keba, 5000 Aarau, Switzerland" LAT="47.381519" LNG="8.057364" NAME="Aarau, Keba"/><Location ADDR="Aarau, Kettenbrücke, 5000 Aarau, Switzerland" LAT="47.394848" LNG="8.042285999999999" NAME="Aarau, Kettenbrücke"/><Location ADDR="Kunsthausweg, 5000 Aarau, Switzerland" LAT="47.3891493" LNG="8.044654099999999" NAME="Aarau, Kunsthaus"/><Location ADDR="Neumattstrasse, 5000 Aarau, Switzerland" LAT="47.4006666" LNG="8.06564" NAME="Aarau, Neumattstrasse"/><Location ADDR="Obere Vorstadt, 5000 Aarau, Switzerland" LAT="47.3897258" LNG="8.046837199999999" NAME="Aarau, Obere Vorstadt"/><Location ADDR="Pestalozzistrasse, 5000 Aarau, Switzerland" LAT="47.3868822" LNG="8.0418956" NAME="Aarau, Pestalozzistrasse"/><Location ADDR="Aarau, Switzerland" LAT="47.390434" LNG="8.0457015" NAME="Aarau, Post Kaufhaus"/><Location ADDR="Rathausgasse, 5000 Aarau, Switzerland" LAT="47.3925265" LNG="8.043994699999999" NAME="Aarau, Rathaus"/><Location ADDR="Roggenhausenweg, 5000 Aarau, Switzerland" LAT="47.3816637" LNG="8.031839" NAME="Aarau, Roggenhausen"/><Location ADDR="Schanzweg, 5000 Aarau, Switzerland" LAT="47.3909096" LNG="8.0431591" NAME="Aarau, Schanz"/><Location ADDR="Sonnmattweg, 5000 Aarau, Switzerland" LAT="47.3976486" LNG="8.0428794" NAME="Aarau, Sonnmattweg"/><Location ADDR="Kantonsspital Aarau, 5000 Aarau, Switzerland" LAT="47.3885507" LNG="8.059472099999999" NAME="Aarau, Spital"/><Location ADDR="Tannerstrasse, 5000 Aarau, Switzerland" LAT="47.3831903" LNG="8.0446137" NAME="Aarau, Tannerstrasse"/><Location ADDR="Aarau, Tellizentrum, 5000 Aarau, Switzerland" LAT="47.3976669" LNG="8.0589324" NAME="Aarau, Tellizentrum"/><Location ADDR="Wallerpl., 5000 Aarau, Switzerland" LAT="47.3821998" LNG="8.044789999999999" NAME="Aarau, Wallerplatz"/><Location ADDR="Wasserfluhweg, 5000 Aarau, Switzerland" LAT="47.3809603" LNG="8.046317199999999" NAME="Aarau, Wasserfluhweg"/><Location ADDR="Wöschnauring, 5000 Aarau, Switzerland" LAT="47.3851477" LNG="8.032658099999999" NAME="Aarau, Wöschnauring"/><Location ADDR="Zelglistrasse, 5000 Aarau, Switzerland" LAT="47.38535299999999" LNG="8.0444602" NAME="Aarau, Zelglistrasse"/><Location ADDR="Aarberg, Switzerland" LAT="47.0420553" LNG="7.2751012" NAME="Aarberg"/><Location ADDR="Rübenweg, 3283 Bargen, Switzerland" LAT="47.0297792" LNG="7.230921" NAME="Aarberg Zuckerrüben"/><Location ADDR="Aarberg, Aarezelg, 3270 Aarberg, Switzerland" LAT="47.049879" LNG="7.271981" NAME="Aarberg, Aarezelg"/><Location ADDR="Aarberg, Bernfeld, 3270 Aarberg, Switzerland" LAT="47.043727" LNG="7.284725000000001" NAME="Aarberg, Bernfeld"/><Location ADDR="Aarberg, Bielstr/Friedhof, 3270 Aarberg, Switzerland" LAT="47.044219" LNG="7.270116999999999" NAME="Aarberg, Bielstr/Friedhof"/><Location ADDR="Bifang, 3267 Seedorf, Switzerland" LAT="47.029395" LNG="7.3163265" NAME="Aarberg, Bifang"/><Location ADDR="Murtenstrasse, 3270 Aarberg, Switzerland" LAT="47.0423321" LNG="7.2706698" NAME="Aarberg, Murtenstrasse"/><Location ADDR="Nidaustrasse, 3270 Aarberg, Switzerland" LAT="47.0470964" LNG="7.272869999999999" NAME="Aarberg, Nidaustrasse"/><Location ADDR="Aarberg, Post/Bahnhof, 3270 Aarberg, Switzerland" LAT="47.044491" LNG="7.278038" NAME="Aarberg, Post/Bahnhof"/><Location ADDR="Scheuerackerweg, 3270 Aarberg, Switzerland" LAT="47.0445958" LNG="7.266804800000001" NAME="Aarberg, Scheueracker"/><Location ADDR="Aarberg, Schwimmbad, 3270 Aarberg, Switzerland" LAT="47.040781" LNG="7.274997" NAME="Aarberg, Schwimmbad"/><Location ADDR="Aarberg, Spital, 3270 Aarberg, Switzerland" LAT="47.047327" LNG="7.279714" NAME="Aarberg, Spital"/><Location ADDR="Aarburg-Oftringen, 4663 Aarburg, Switzerland" LAT="47.3202781" LNG="7.908094299999999" NAME="Aarburg-Oftringen"/><Location ADDR="Aarburg, Switzerland" LAT="47.3205914" LNG="7.9066923" NAME="Aarburg-Oftringen Süd (Abzw)"/><Location ADDR="Aarburg, Switzerland" LAT="47.3205914" LNG="7.9066923" NAME="Aarburg-Oftringen West (Abzw)"/><Location ADDR="Bahnhofstrasse, 4663 Aarburg, Switzerland" LAT="47.3210764" LNG="7.9056249" NAME="Aarburg-Oftringen, Bahnhof"/><Location ADDR="Aarburg, Alter Friedhof, 4663 Aarburg, Switzerland" LAT="47.326207" LNG="7.900596" NAME="Aarburg, Alter Friedhof"/><Location ADDR="Höhe, 4663 Aarburg, Switzerland" LAT="47.3292898" LNG="7.9034285" NAME="Aarburg, Höhe"/><Location ADDR="Kloosmattstrasse, 4663 Aarburg, Switzerland" LAT="47.33743219999999" LNG="7.907377399999999" NAME="Aarburg, Kloosmatte"/><Location ADDR="Längackerstrasse, 4663 Aarburg, Switzerland" LAT="47.3343351" LNG="7.908776" NAME="Aarburg, Längacker"/><Location ADDR="Aarburg, Städtli, 4663 Aarburg, Switzerland" LAT="47.321761" LNG="7.898982999999999" NAME="Aarburg, Städtli"/><Location ADDR="Aarburg, Stadtgarten, 4663 Aarburg, Switzerland" LAT="47.320015" LNG="7.899418" NAME="Aarburg, Stadtgarten"/><Location ADDR="Aareschlucht Ost MIB, 3862 Innertkirchen, Switzerland" LAT="46.712001" LNG="8.217895" NAME="Aareschlucht Ost MIB"/><Location ADDR="Aareschlucht West, 3860 Meiringen, Switzerland" LAT="46.7212946" LNG="8.1984844" NAME="Aareschlucht West"/><Location ADDR="Aareschlucht, Ost, 3862 Innertkirchen, Switzerland" LAT="46.712084" LNG="8.216379" NAME="Aareschlucht, Ost"/><Location ADDR="4912 Aarwangen, Switzerland" LAT="47.2377902" LNG="7.7708422" NAME="Aarwangen"/><Location ADDR="Schloss, Jurastrasse 90, 4912 Aarwangen, Switzerland" LAT="47.2457" LNG="7.763459999999998" NAME="Aarwangen Schloss"/><Location ADDR="Aarwangen Vorstadt, 4912 Aarwangen, Switzerland" LAT="47.237497" LNG="7.771301999999999" NAME="Aarwangen Vorstadt"/><Location ADDR="8607 Aathal, Switzerland" LAT="47.335333" LNG="8.770695" NAME="Aathal"/><Location ADDR="Bahnhofstrasse, Wetzikon, Switzerland" LAT="47.3198337" LNG="8.7931621" NAME="Aathal, Bahnhof"/><Location ADDR="8522 Aawangen, Switzerland" LAT="47.511817" LNG="8.899633000000001" NAME="Aawangen, Dorf"/><Location ADDR="Altchileweg, 5646 Abtwil, Switzerland" LAT="47.1717272" LNG="8.352591799999999" NAME="Abtwil AG, Altchilen"/><Location ADDR="Auwerstrasse, 5646 Abtwil, Switzerland" LAT="47.1754268" LNG="8.355388099999999" NAME="Abtwil AG, Auwerstrasse"/><Location ADDR="Hofmatt, 5646 Abtwil, Switzerland" LAT="47.1770817" LNG="8.3565228" NAME="Abtwil AG, Hofmatt"/><Location ADDR="Langegg, 5646 Abtwil, Switzerland" LAT="47.18255980000001" LNG="8.3584011" NAME="Abtwil AG, Langegg"/><Location ADDR="Postpl., 6274 Eschenbach, Switzerland" LAT="47.1322912" LNG="8.3191548" NAME="Abtwil AG, Post"/><Location ADDR="Abtwil SG, Ausserdorf, 9030 Gaiserwald, Switzerland" LAT="47.420391" LNG="9.314710999999999" NAME="Abtwil SG, Ausserdorf"/><Location ADDR="9030 Abtwil SG, Switzerland" LAT="47.418687" LNG="9.315579999999999" NAME="Abtwil SG, Dorf"/><Location ADDR="Friedhofstrasse, 9014 St. Gallen, Switzerland" LAT="47.4104573" LNG="9.3340785" NAME="Abtwil SG, Friedhof"/><Location ADDR="Abtwil SG, Gemeindehaus, 9030 Gaiserwald, Switzerland" LAT="47.422043" LNG="9.319341999999999" NAME="Abtwil SG, Gemeindehaus"/><Location ADDR="Grundweg, 9030 Gaiserwald, Switzerland" LAT="47.4225088" LNG="9.3258961" NAME="Abtwil SG, Grund"/><Location ADDR="Hüslenweg, 9030 Gaiserwald, Switzerland" LAT="47.4276634" LNG="9.324676400000001" NAME="Abtwil SG, Hüslenweg"/><Location ADDR="Abtwil SG, Säntispark, 9030 Gaiserwald, Switzerland" LAT="47.417489" LNG="9.315019" NAME="Abtwil SG, Säntispark"/><Location ADDR="Sonnenhofstrasse, 9030 Gaiserwald, Switzerland" LAT="47.4230209" LNG="9.323673" NAME="Abtwil SG, Sonnenhof"/><Location ADDR="St. Josefen, 9030 Gaiserwald, Switzerland" LAT="47.42538" LNG="9.33554" NAME="Abtwil SG, St. Josefen"/><Location ADDR="Abtwil SG, Wiesenbach/Cinedome, 9030 Gaiserwald, Switzerland" LAT="47.416218" LNG="9.312350000000002" NAME="Abtwil SG, Wiesenbach/Cinedome"/><Location ADDR="Abtwil SG, Zentrumspark, 9030 Gaiserwald, Switzerland" LAT="47.422833" LNG="9.317779" NAME="Abtwil SG, Zentrumspark"/><Location ADDR="Achseten, Bettbach, 3725 Frutigen, Switzerland" LAT="46.531029" LNG="7.592352" NAME="Achseten, Bettbach"/><Location ADDR="Achseten, Bönigen, 3725 Frutigen, Switzerland" LAT="46.535629" LNG="7.596536" NAME="Achseten, Bönigen"/><Location ADDR="Achseten, Hoher Steg, 3725 Frutigen, Switzerland" LAT="46.528007" LNG="7.592147000000001" NAME="Achseten, Hoher Steg"/><Location ADDR="Achseten, Kirche, 3725 Frutigen, Switzerland" LAT="46.525946" LNG="7.592428" NAME="Achseten, Kirche"/><Location ADDR="Achseten, Marchbach, 3725 Frutigen, Switzerland" LAT="46.515967" LNG="7.587969999999999" NAME="Achseten, Marchbach"/><Location ADDR="Achseten, Schmitten, 3725 Frutigen, Switzerland" LAT="46.539692" LNG="7.598738" NAME="Achseten, Schmitten"/><Location ADDR="Achseten, Tregel, 3725 Frutigen, Switzerland" LAT="46.520535" LNG="7.589219999999999" NAME="Achseten, Tregel"/><Location ADDR="Ackersand, 3922 Stalden, Switzerland" LAT="46.2411789" LNG="7.8752285" NAME="Ackersand"/><Location ADDR="Acla, 7185 Medels im Oberland, Switzerland" LAT="46.636789" LNG="8.8462025" NAME="Acla (Medel)"/><Location ADDR="Acla, 7104 Tenna, Switzerland" LAT="46.7519018" LNG="9.353645199999999" NAME="Acla (Safien)"/><Location ADDR="Einkaufsz. Acla da Fans, 7560 Martina GR, Switzerland" LAT="46.9550855" LNG="10.4364998" NAME="Acla da Fans"/><Location ADDR="Acla da Fontauna, 7180 Disentis/Mustér, Switzerland" LAT="46.697176" LNG="8.845780999999999" NAME="Acla da Fontauna"/><Location ADDR="Acla da Fontauna, center sport, 7180 Disentis/Mustér, Switzerland" LAT="46.699552" LNG="8.84426" NAME="Acla da Fontauna, center sport"/><Location ADDR="Rue du Collège, 1031 Mex, Switzerland" LAT="46.5776932" LNG="6.5531259" NAME="Aclens, collège"/><Location ADDR="Acquacalda, 6718, Switzerland" LAT="46.53764" LNG="8.834349999999999" NAME="Acquacalda"/><Location ADDR="Comprovasco, 6716 Acquarossa, Switzerland" LAT="46.4582207" LNG="8.931884499999999" NAME="Acquarossa-Comprovasco"/><Location ADDR="Acquarossa, Casa Anziani, 6722 Acquarossa, Switzerland" LAT="46.451725" LNG="8.938759" NAME="Acquarossa, Casa Anziani"/><Location ADDR="Acquarossa, Ospedale, 6722 Acquarossa, Switzerland" LAT="46.451137" LNG="8.940318" NAME="Acquarossa, Ospedale"/><Location ADDR="Str. Scuole, 6713 Malvaglia, Switzerland" LAT="46.4081513" LNG="8.9818006" NAME="Acquarossa, Scuole"/><Location ADDR="Bergläger-Sillerenbühl, 3715 Adelboden, Switzerland" LAT="46.4701637" LNG="7.5253805" NAME="Adelboden Bergläger (Silleren)"/><Location ADDR="Adelboden Dorf (Silleren), 3715 Adelboden, Switzerland" LAT="46.49036599999999" LNG="7.556640999999999" NAME="Adelboden Dorf (Silleren)"/><Location ADDR="Geils-Hahnenmoos, 3715 Adelboden, Switzerland" LAT="46.4550651" LNG="7.503966600000001" NAME="Adelboden Geils (Hahnenmoos)"/><Location ADDR="Geils, 3715 Adelboden, Switzerland" LAT="46.4603154" LNG="7.5211681" NAME="Adelboden Geils (Laveygrat)"/><Location ADDR="Geils-Luegli, 3715 Adelboden, Switzerland" LAT="46.4486296" LNG="7.5105914" NAME="Adelboden Geils (Luegli)"/><Location ADDR="Adelboden Oey (Sillerenbahn), 3715 Adelboden, Switzerland" LAT="46.487888" LNG="7.560425999999999" NAME="Adelboden Oey (Sillerenbahn)"/><Location ADDR="Adelboden, Altersheim, 3715 Adelboden, Switzerland" LAT="46.497615" LNG="7.566413000000001" NAME="Adelboden, Altersheim"/><Location ADDR="Adelboden, Ausserschwand Schul, 3715 Adelboden, Switzerland" LAT="46.50508199999999" LNG="7.573987" NAME="Adelboden, Ausserschwand Schul"/><Location ADDR="Adelboden, Bergläger, 3715 Adelboden, Switzerland" LAT="46.46878" LNG="7.533199000000001" NAME="Adelboden, Bergläger"/><Location ADDR="Adelboden, Boden Wendeplatz, 3715 Adelboden, Switzerland" LAT="46.481818" LNG="7.558784" NAME="Adelboden, Boden Wendeplatz"/><Location ADDR="Adelboden, Bollersgraben, 3715 Adelboden, Switzerland" LAT="46.477859" LNG="7.559660999999999" NAME="Adelboden, Bollersgraben"/><Location ADDR="Brüggenweg, 3715 Adelboden, Switzerland" LAT="46.4772626" LNG="7.5647026" NAME="Adelboden, Brügge"/><Location ADDR="Adelboden, Switzerland" LAT="46.4930889" LNG="7.5595123" NAME="Adelboden, Chäli"/><Location ADDR="Sillerenbühl, 3715 Adelboden, Switzerland" LAT="46.472222" LNG="7.518611000000001" NAME="Adelboden, Dorf Sillerenbahn"/><Location ADDR="Adelboden, Dürrenegge, 3715 Adelboden, Switzerland" LAT="46.48790200000001" LNG="7.563994" NAME="Adelboden, Dürrenegge"/><Location ADDR="Adelboden, Falkiport, 3715 Adelboden, Switzerland" LAT="46.484423" LNG="7.561811000000001" NAME="Adelboden, Falkiport"/><Location ADDR="Geils, 3715 Adelboden, Switzerland" LAT="46.4603154" LNG="7.5211681" NAME="Adelboden, Geils"/><Location ADDR="Adelboden, Gilbach, des Alpes, 3715 Adelboden, Switzerland" LAT="46.47945300000001" LNG="7.539012" NAME="Adelboden, Gilbach, des Alpes"/><Location ADDR="Adelboden, Switzerland" LAT="46.4930889" LNG="7.5595123" NAME="Adelboden, Gulli"/><Location ADDR="Adelboden, Heinrichseggen, 3715 Adelboden, Switzerland" LAT="46.487438" LNG="7.55248" NAME="Adelboden, Heinrichseggen"/><Location ADDR="Adelboden, Hirschen, 3715 Adelboden, Switzerland" LAT="46.504919" LNG="7.582351" NAME="Adelboden, Hirschen"/><Location ADDR="Oberes-Hirzboden, 3715 Adelboden, Switzerland" LAT="46.5051786" LNG="7.593831000000001" NAME="Adelboden, Hirzboden"/><Location ADDR="Adelboden, Hotel Alpina, 3715 Adelboden, Switzerland" LAT="46.484598" LNG="7.566774" NAME="Adelboden, Hotel Alpina"/><Location ADDR="Adelboden, Janz Team, 3715 Adelboden, Switzerland" LAT="46.498594" LNG="7.56751" NAME="Adelboden, Janz Team"/><Location ADDR="Adelboden, Jugendh. Heilsarmee, 3715 Adelboden, Switzerland" LAT="46.48560500000001" LNG="7.54017" NAME="Adelboden, Jugendh. Heilsarmee"/><Location ADDR="Kreuzgasse, 3715 Adelboden, Switzerland" LAT="46.4813646" LNG="7.5596213" NAME="Adelboden, Kreuzgasse"/><Location ADDR="Margeliweg, 3715 Adelboden, Switzerland" LAT="46.4950783" LNG="7.568135" NAME="Adelboden, Margeli"/><Location ADDR="Adelboden, Mineralquelle, 3715 Adelboden, Switzerland" LAT="46.488743" LNG="7.560024" NAME="Adelboden, Mineralquelle"/><Location ADDR="Mühleportstrasse, 3715 Adelboden, Switzerland" LAT="46.4908314" LNG="7.562852299999999" NAME="Adelboden, Mühleport"/><Location ADDR="Neuweg, 3715 Adelboden, Switzerland" LAT="46.5089699" LNG="7.5796211" NAME="Adelboden, Neuweg"/><Location ADDR="Oeystrasse, 3715 Adelboden, Switzerland" LAT="46.4876294" LNG="7.556736" NAME="Adelboden, Oey"/><Location ADDR="Adelboden, Post, 3715 Adelboden, Switzerland" LAT="46.493691" LNG="7.560295" NAME="Adelboden, Post"/><Location ADDR="Rainweg, 3715 Adelboden, Switzerland" LAT="46.5036567" LNG="7.5717358" NAME="Adelboden, Rainweg"/><Location ADDR="Adelboden, Raufmatte, 3715 Adelboden, Switzerland" LAT="46.470507" LNG="7.562196999999999" NAME="Adelboden, Raufmatte"/><Location ADDR="Adelboden, Schermtanne, 3715 Adelboden, Switzerland" LAT="46.48934999999999" LNG="7.526409999999999" NAME="Adelboden, Schermtanne"/><Location ADDR="Adelboden, Schlegeli Crystal, 3715 Adelboden, Switzerland" LAT="46.495036" LNG="7.563632999999998" NAME="Adelboden, Schlegeli Crystal"/><Location ADDR="Adelboden, Schlegeli Hari, 3715 Adelboden, Switzerland" LAT="46.4965" LNG="7.565851" NAME="Adelboden, Schlegeli Hari"/><Location ADDR="Adelboden, Schreiner Bärtschi, 3715 Adelboden, Switzerland" LAT="46.487373" LNG="7.534260000000001" NAME="Adelboden, Schreiner Bärtschi"/><Location ADDR="Adelboden, Schönbühl, 3715 Adelboden, Switzerland" LAT="46.501595" LNG="7.570839" NAME="Adelboden, Schönbühl"/><Location ADDR="Unter dem Birg, 3715 Adelboden, Switzerland" LAT="46.4592418" LNG="7.5667424" NAME="Adelboden, Unter dem Birg"/><Location ADDR="Adelboden, Unter der Fluh, 3715 Adelboden, Switzerland" LAT="46.484511" LNG="7.546339999999999" NAME="Adelboden, Unter der Fluh"/><Location ADDR="Adelboden, Wegscheide, 3715 Adelboden, Switzerland" LAT="46.486316" LNG="7.550108000000001" NAME="Adelboden, Wegscheide"/><Location ADDR="Adelboden, Switzerland" LAT="46.4930889" LNG="7.5595123" NAME="Adelboden, Zürcherhaus"/><Location ADDR="Adelhausen, Adler, 79618 Rheinfelden (Baden), Germany" LAT="47.611665" LNG="7.761406999999999" NAME="Adelhausen, Adler"/><Location ADDR="Adelhausen, Dinkelberger Hof, 79618 Rheinfelden (Baden), Germany" LAT="47.61325" LNG="7.760937999999999" NAME="Adelhausen, Dinkelberger Hof"/><Location ADDR="Hüsinger Str., 79585 Steinen, Germany" LAT="47.6377096" LNG="7.7437841" NAME="Adelhausen, Hüsingerstrasse"/><Location ADDR="Frowiesstrasse, 8345 Bäretswil, Switzerland" LAT="47.33846" LNG="8.842559999999999" NAME="Adetswil, Frowiesstrasse"/><Location ADDR="Im Sunneberg, 8345 Bäretswil, Switzerland" LAT="47.33871" LNG="8.840259999999999" NAME="Adetswil, Sunneberg"/><Location ADDR="Blattenstrasse, 6043 Adligenswil, Switzerland" LAT="47.0693197" LNG="8.370274199999999" NAME="Adligenswil, Blatte"/><Location ADDR="Adligenswil, Chliäbnet, 6043 Adligenswil, Switzerland" LAT="47.073431" LNG="8.381071" NAME="Adligenswil, Chliäbnet"/><Location ADDR="Adligenswil, Switzerland" LAT="47.071186" LNG="8.3647405" NAME="Adligenswil, Dorf"/><Location ADDR="Gämpi, 6043 Adligenswil, Switzerland" LAT="47.066347" LNG="8.3655122" NAME="Adligenswil, Gämpi"/><Location ADDR="Luegisland, 6036 Dierikon, Switzerland" LAT="47.0931307" LNG="8.3711828" NAME="Adligenswil, Luegisland"/><Location ADDR="Adligenswil, Rigiblick, 6043 Adligenswil, Switzerland" LAT="47.065737" LNG="8.362518" NAME="Adligenswil, Rigiblick"/><Location ADDR="Sagi, 6043 Adligenswil, Switzerland" LAT="47.0704715" LNG="8.3765419" NAME="Adligenswil, Sagi"/><Location ADDR="Stuben, 6030 Adligenswil, Switzerland" LAT="47.0729861" LNG="8.3501133" NAME="Adligenswil, Stuben"/><Location ADDR="Talrain, 6043 Adligenswil, Switzerland" LAT="47.0642516" LNG="8.361253099999999" NAME="Adligenswil, Talrain"/><Location ADDR="Widspüel, 6043 Adligenswil, Switzerland" LAT="47.07362879999999" LNG="8.3628092" NAME="Adligenswil, Widspüel"/><Location ADDR="Adlikon bei Andelfingen, Switzerland" LAT="47.5830535" LNG="8.6923294" NAME="Adlikon b. Andelfingen"/><Location ADDR="Adlikon bei Andelfingen, Switzerland" LAT="47.5830535" LNG="8.6923294" NAME="Adlikon b. R., Dorf"/><Location ADDR="Adlikon b. R., Leematten, 8106 Regensdorf, Switzerland" LAT="47.4525792" LNG="8.4670569" NAME="Adlikon b. R., Leematten"/><Location ADDR="Adlikon b. R., Pächterried, 8106 Regensdorf, Switzerland" LAT="47.4458964" LNG="8.4700438" NAME="Adlikon b. R., Pächterried"/><Location ADDR="Adlikon b. R., Sonnhalde, 8106 Regensdorf, Switzerland" LAT="47.4520196" LNG="8.462205899999999" NAME="Adlikon b. R., Sonnhalde"/><Location ADDR="Adlikon b. R., Sonnhalde West, 8106 Regensdorf, Switzerland" LAT="47.45328989999999" LNG="8.458915" NAME="Adlikon b. R., Sonnhalde West"/><Location ADDR="Ziegelhütte, 8475 Ossingen, Switzerland" LAT="47.5974996" LNG="8.7375457" NAME="Adlikon b. R., Ziegelhütte"/><Location ADDR="Adliswil, Switzerland" LAT="47.3124347" LNG="8.5270459" NAME="Adliswil"/><Location ADDR="Adliswil (Luftseilbahnstation), 8134 Adliswil, Switzerland" LAT="47.31317" LNG="8.520055" NAME="Adliswil (Luftseilbahnstation)"/><Location ADDR="Ahornweg, 8134 Adliswil, Switzerland" LAT="47.3184958" LNG="8.5317294" NAME="Adliswil, Ahornweg"/><Location ADDR="Badstrasse, 8134 Adliswil, Switzerland" LAT="47.3128083" LNG="8.533147" NAME="Adliswil, Badstrasse"/><Location ADDR="Adliswil, Bahnhof, 8134 Adliswil, Switzerland" LAT="47.3119288" LNG="8.5244471" NAME="Adliswil, Bahnhof"/><Location ADDR="Baldernstrasse, 8134 Adliswil, Switzerland" LAT="47.32092" LNG="8.5137587" NAME="Adliswil, Baldernstrasse"/><Location ADDR="Baumgartenweg, 8134 Adliswil, Switzerland" LAT="47.3095091" LNG="8.5249478" NAME="Adliswil, Baumgartenweg"/><Location ADDR="Bodenacker, 8134 Adliswil, Switzerland" LAT="47.3161597" LNG="8.5168821" NAME="Adliswil, Bodenacker"/><Location ADDR="Büchelring, 8134 Adliswil, Switzerland" LAT="47.3003272" LNG="8.5211774" NAME="Adliswil, Büchel"/><Location ADDR="Eichenweg, 8134 Adliswil, Switzerland" LAT="47.31974810000001" LNG="8.5318889" NAME="Adliswil, Eichenweg"/><Location ADDR="Feldblumenstrasse, 8134 Adliswil, Switzerland" LAT="47.3173761" LNG="8.514817899999999" NAME="Adliswil, Feldblumenstrasse"/><Location ADDR="Adliswil, Friedhof, 8134 Adliswil, Switzerland" LAT="47.3068785" LNG="8.5296343" NAME="Adliswil, Friedhof"/><Location ADDR="Grüt, 8932 Mettmenstetten, Switzerland" LAT="47.2609384" LNG="8.4613522" NAME="Adliswil, Grüt"/><Location ADDR="Hofackerstrasse, 8134 Adliswil, Switzerland" LAT="47.315825" LNG="8.533561299999999" NAME="Adliswil, Hofackerstrasse"/><Location ADDR="Kronenstrasse, 8134 Adliswil, Switzerland" LAT="47.311549" LNG="8.5270877" NAME="Adliswil, Krone"/><Location ADDR="Landolt Junkerstrasse, 8134 Adliswil, Switzerland" LAT="47.3037422" LNG="8.5194608" NAME="Adliswil, Landolt-Junker-Str."/><Location ADDR="Moos, 8134 Adliswil, Switzerland" LAT="47.3228351" LNG="8.5298748" NAME="Adliswil, Moos"/><Location ADDR="Poststrasse, 8134 Adliswil, Switzerland" LAT="47.31333859999999" LNG="8.5246122" NAME="Adliswil, Poststrasse"/><Location ADDR="Rifertstrasse, 8134 Adliswil, Switzerland" LAT="47.30966799999999" LNG="8.5356879" NAME="Adliswil, Rifertstrasse"/><Location ADDR="Adliswil, Rütistrasse/Wacht, 8134 Adliswil, Switzerland" LAT="47.3070161" LNG="8.5322028" NAME="Adliswil, Rütistrasse/Wacht"/><Location ADDR="Adliswil, Schulhaus Kopfholz, 8134 Adliswil, Switzerland" LAT="47.3088484" LNG="8.534382899999999" NAME="Adliswil, Schulhaus Kopfholz"/><Location ADDR="Tiefackerstrasse, 8134 Adliswil, Switzerland" LAT="47.3143677" LNG="8.5309712" NAME="Adliswil, Tiefacker"/><Location ADDR="Tobelhof, 8134 Adliswil, Switzerland" LAT="47.3090336" LNG="8.530113" NAME="Adliswil, Tobelhof"/><Location ADDR="Adliswil, Wanneten-/Haldenstr., 8134 Adliswil, Switzerland" LAT="47.3059115" LNG="8.5224732" NAME="Adliswil, Wanneten-/Haldenstr."/><Location ADDR="Zopfstrasse, 8134 Adliswil, Switzerland" LAT="47.3176761" LNG="8.5165891" NAME="Adliswil, Zopf"/><Location ADDR="Dorfstrasse, 4714 Aedermannsdorf, Switzerland" LAT="47.30700179999999" LNG="7.6084026" NAME="Aedermannsdorf, Dorfplatz"/><Location ADDR="Aedermannsdorf, Staatsstrasse, 4714 Aedermannsdorf, Switzerland" LAT="47.298825" LNG="7.614608" NAME="Aedermannsdorf, Staatsstrasse"/><Location ADDR="Aefligen, Switzerland" LAT="47.0954889" LNG="7.5576032" NAME="Aefligen"/><Location ADDR="Aefligen, Switzerland" LAT="47.0954889" LNG="7.5576032" NAME="Aefligen, Gemeindehaus"/><Location ADDR="Aegerten, Bären, 2558 Aegerten, Switzerland" LAT="47.121996" LNG="7.287569" NAME="Aegerten, Bären"/><Location ADDR="Dorfpl., 2565 Jens, Switzerland" LAT="47.09824589999999" LNG="7.263232999999999" NAME="Aegerten, Dorfplatz"/><Location ADDR="Jurastrasse, 2558 Aegerten, Switzerland" LAT="47.1234307" LNG="7.290732299999999" NAME="Aegerten, Jurastrasse"/><Location ADDR="Stockfeldstrasse, 2558 Aegerten, Switzerland" LAT="47.11938989999999" LNG="7.2917595" NAME="Aegerten, Stockfeld"/><Location ADDR="Aempächli, 8767 Glarus Süd, Switzerland" LAT="46.921788" LNG="9.155249999999999" NAME="Aempächli"/><Location ADDR="Ämsigen, 6053, Switzerland" LAT="46.9702123" LNG="8.2714631" NAME="Aemsigen"/><Location ADDR="Aesch, Switzerland" LAT="47.4672734" LNG="7.597934399999999" NAME="Aesch"/><Location ADDR="Aesch (Neftenbach), 8412 Neftenbach, Switzerland" LAT="47.5418578" LNG="8.6812676" NAME="Aesch (Neftenbach)"/><Location ADDR="Aeschstrasse, 8127 Maur, Switzerland" LAT="47.330632" LNG="8.6547087" NAME="Aesch bei Maur, Im Brünneli"/><Location ADDR="Aesch bei Maur, Zollingerheim, 8127 Maur, Switzerland" LAT="47.3266783" LNG="8.6563462" NAME="Aesch bei Maur, Zollingerheim"/><Location ADDR="Aesch, Switzerland" LAT="47.4672734" LNG="7.597934399999999" NAME="Aesch BL Dorf"/><Location ADDR="Aesch BL, Alterszentrum, 4147 Aesch, Switzerland" LAT="47.46538899999999" LNG="7.596575" NAME="Aesch BL, Alterszentrum"/><Location ADDR="Arlesheimerstrasse, 4147 Aesch, Switzerland" LAT="47.4788565" LNG="7.5970453" NAME="Aesch BL, Arlesheimerstrasse"/><Location ADDR="Bahnhofstrasse, 4147 Aesch, Switzerland" LAT="47.4674208" LNG="7.6004562" NAME="Aesch BL, Bahnhof"/><Location ADDR="Aesch BL, Dorf (Bus), 4147 Aesch, Switzerland" LAT="47.469409" LNG="7.596984" NAME="Aesch BL, Dorf (Bus)"/><Location ADDR="Gewerbestrasse, 4147 Aesch, Switzerland" LAT="47.48173" LNG="7.60702" NAME="Aesch BL, Gewerbestrasse"/><Location ADDR="Herrenweg, 4147 Aesch, Switzerland" LAT="47.4739346" LNG="7.593245800000001" NAME="Aesch BL, Herrenweg"/><Location ADDR="Höhenweg, 4147 Aesch, Switzerland" LAT="47.4623175" LNG="7.5956953" NAME="Aesch BL, Höhenweg"/><Location ADDR="Neumattstrasse, 4147 Aesch, Switzerland" LAT="47.47211189999999" LNG="7.582191699999999" NAME="Aesch BL, Neumatt"/><Location ADDR="Schwimmbadweg, 4144 Arlesheim, Switzerland" LAT="47.4974829" LNG="7.613985599999999" NAME="Aesch BL, Schwimmbad"/><Location ADDR="Schürhofweg, 4147 Aesch, Switzerland" LAT="47.47094" LNG="7.59282" NAME="Aesch BL, Schürhof"/><Location ADDR="Aesch BL, Schützenmattschule, 4147 Aesch, Switzerland" LAT="47.473226" LNG="7.601068000000001" NAME="Aesch BL, Schützenmattschule"/><Location ADDR="Sonnenweg, 4147 Aesch, Switzerland" LAT="47.4866827" LNG="7.606306599999999" NAME="Aesch BL, Sonnenweg"/><Location ADDR="Aesch BL, Sportanl Löhrenacker, 4147 Aesch, Switzerland" LAT="47.472752" LNG="7.585308" NAME="Aesch BL, Sportanl Löhrenacker"/><Location ADDR="Aesch LU SGH, 6287 Aesch, Switzerland" LAT="47.258416" LNG="8.229918999999999" NAME="Aesch LU SGH"/><Location ADDR="Berg, 6285 Hitzkirch, Switzerland" LAT="47.2294422" LNG="8.2705494" NAME="Aesch LU, Berg"/><Location ADDR="Kreuzweg, 5615 Fahrwangen, Switzerland" LAT="47.2971838" LNG="8.238666499999999" NAME="Aesch LU, Kreuz"/><Location ADDR="Vorderdorf, 6287 Aesch, Switzerland" LAT="47.25423139999999" LNG="8.2417107" NAME="Aesch LU, Vorderdorf"/><Location ADDR="Aesch ZH, Gemeindehaus, 8904 Aesch, Switzerland" LAT="47.3377659" LNG="8.4385117" NAME="Aesch ZH, Gemeindehaus"/><Location ADDR="Aesch, Switzerland" LAT="47.3368912" LNG="8.4427102" NAME="Aesch ZH, Heligenmattstrasse"/><Location ADDR="Aschau im Chiemgau, Germany" LAT="47.77711559999999" LNG="12.3225336" NAME="Aeschau, Dorf"/><Location ADDR="Aeschau, Horben Schmiede, 3536 Eggiwil, Switzerland" LAT="46.902561" LNG="7.764233999999999" NAME="Aeschau, Horben Schmiede"/><Location ADDR="Aeschau, Horben Schulhaus, 3536 Eggiwil, Switzerland" LAT="46.899387" LNG="7.773191" NAME="Aeschau, Horben Schulhaus"/><Location ADDR="Säge, 3619 Eriz, Switzerland" LAT="46.78573" LNG="7.82579" NAME="Aeschau, Säge"/><Location ADDR="Alleestrasse, 3703 Aeschi bei Spiez, Switzerland" LAT="46.6593599" LNG="7.699956999999999" NAME="Aeschi b. Spiez, Alleestrasse"/><Location ADDR="Friedegg, 3703 Aeschi bei Spiez, Switzerland" LAT="46.6511013" LNG="7.7032251" NAME="Aeschi b. Spiez, Friedegg"/><Location ADDR="Haslerenstrasse, 3703 Aeschi bei Spiez, Switzerland" LAT="46.6622445" LNG="7.6871313" NAME="Aeschi b. Spiez, Hasleren"/><Location ADDR="Längenboden, 3703 Krattigen, Switzerland" LAT="46.6573344" LNG="7.7161032" NAME="Aeschi b. Spiez, Längenboden"/><Location ADDR="Lengmattliweg, 3703 Aeschi bei Spiez, Switzerland" LAT="46.6633744" LNG="7.690347999999999" NAME="Aeschi b. Spiez, Lengmattli"/><Location ADDR="Aeschi b. Spiez, Mustermattli, 3703 Aeschi bei Spiez, Switzerland" LAT="46.654288" LNG="7.700426" NAME="Aeschi b. Spiez, Mustermattli"/><Location ADDR="Niederdorfstrasse, Aeschi bei Spiez, Switzerland" LAT="46.6604181" LNG="7.6884348" NAME="Aeschi b. Spiez, Niederdorf"/><Location ADDR="Postgasse, 3752 Wimmis, Switzerland" LAT="46.6755168" LNG="7.6372269" NAME="Aeschi b. Spiez, Post"/><Location ADDR="Wachthubel, 3703 Aeschi bei Spiez, Switzerland" LAT="46.6512235" LNG="7.710073099999999" NAME="Aeschi b. Spiez, Wachthubel"/><Location ADDR="Aeschi bei Spiez, Switzerland" LAT="46.6582768" LNG="7.6963226" NAME="Aeschi SO, Dorf"/><Location ADDR="Bei der Kirche, 3703 Aeschi bei Spiez, Switzerland" LAT="46.6601329" LNG="7.6946257" NAME="Aeschi SO, Kirche"/><Location ADDR="Aeschi SO, Ost, 4556 Aeschi, Switzerland" LAT="47.181458" LNG="7.673182" NAME="Aeschi SO, Ost"/><Location ADDR="Aeschiried, untere Allmi, 3703 Aeschi bei Spiez, Switzerland" LAT="46.637031" LNG="7.735028999999999" NAME="Aeschiried, untere Allmi"/><Location ADDR="Aeschiried, Chemihütte, 3703 Aeschi bei Spiez, Switzerland" LAT="46.648295" LNG="7.720186000000001" NAME="Aeschiried, Chemihütte"/><Location ADDR="Ebenen, 3703 Aeschi bei Spiez, Switzerland" LAT="46.6491905" LNG="7.7225595" NAME="Aeschiried, Ebenen"/><Location ADDR="Aeschiried, Fuchsgraben, 3703 Aeschi bei Spiez, Switzerland" LAT="46.629938" LNG="7.746742999999999" NAME="Aeschiried, Fuchsgraben"/><Location ADDR="3703 Aeschiried, Switzerland" LAT="46.64559999999999" LNG="7.724600000000001" NAME="Aeschiried, Kapelle"/><Location ADDR="Aeschiried, Schulhaus, 3703 Aeschi bei Spiez, Switzerland" LAT="46.645002" LNG="7.724088" NAME="Aeschiried, Schulhaus"/><Location ADDR="Aeschiried, Staldeweid, 3703 Aeschi bei Spiez, Switzerland" LAT="46.63423299999999" LNG="7.738605" NAME="Aeschiried, Staldeweid"/><Location ADDR="Aeschiried, Suld Pochtenfall, 3703 Aeschi bei Spiez, Switzerland" LAT="46.622153" LNG="7.764455000000001" NAME="Aeschiried, Suld Pochtenfall"/><Location ADDR="Aeschlen b. O., Abzw. Bleiken, 3672 Aeschlen, Switzerland" LAT="46.834101" LNG="7.630792" NAME="Aeschlen b. O., Abzw. Bleiken"/><Location ADDR="Aeschlen b. O., Bareichte, 3672 Aeschlen, Switzerland" LAT="46.837804" LNG="7.666852999999999" NAME="Aeschlen b. O., Bareichte"/><Location ADDR="Aeschlen bei Oberdiessbach, Switzerland" LAT="46.83697129999999" LNG="7.6418895" NAME="Aeschlen b. O., Dorf"/><Location ADDR="Jülisgraben, 3672 Aeschlen, Switzerland" LAT="46.8372282" LNG="7.65364" NAME="Aeschlen b. O., Julisgraben"/><Location ADDR="Dorf, 3656 Sigriswil, Switzerland" LAT="46.7328272" LNG="7.693742500000001" NAME="Aeschlen ob Gunten, Dorf"/><Location ADDR="Aeschlen ob Gunten, Erliboden, 3656 Sigriswil, Switzerland" LAT="46.720699" LNG="7.705338" NAME="Aeschlen ob Gunten, Erliboden"/><Location ADDR="Aeschlen ob Gunten, Mattikehr, 3656 Sigriswil, Switzerland" LAT="46.717723" LNG="7.697200999999999" NAME="Aeschlen ob Gunten, Mattikehr"/><Location ADDR="Äspli, 3053 Deisswil bei Münchenbuchsee, Switzerland" LAT="47.03660000000001" LNG="7.463639999999999" NAME="Aespli"/><Location ADDR="Dorf, 4581 Buchegg, Switzerland" LAT="47.150961" LNG="7.515476799999999" NAME="Aetigkofen, Dorf"/><Location ADDR="Fröscheren, 4587 Buchegg, Switzerland" LAT="47.1280402" LNG="7.4943667" NAME="Aetingen, Fröscheren"/><Location ADDR="Poststrasse, 3427 Utzenstorf, Switzerland" LAT="47.1304889" LNG="7.555767899999999" NAME="Aetingen, Post"/><Location ADDR="Schulhausweg, 4577 Buchegg, Switzerland" LAT="47.1411474" LNG="7.4672783" NAME="Aetingen, Schulhaus"/><Location ADDR="Oberdorf, 5645 Sins, Switzerland" LAT="47.1786545" LNG="8.3707415" NAME="Aettenschwil, Oberdorf"/><Location ADDR="Aettenschwil, Post, 5645 Sins, Switzerland" LAT="47.18432199999999" LNG="8.371822" NAME="Aettenschwil, Post"/><Location ADDR="Aeugst am Albis, Switzerland" LAT="47.2677487" LNG="8.4852115" NAME="Aeugst am Albis, Dorf"/><Location ADDR="Höchweg, 8914 Aeugst am Albis, Switzerland" LAT="47.2759603" LNG="8.4779166" NAME="Aeugst am Albis, Höchweg"/><Location ADDR="Aeugsterstrasse, Switzerland" LAT="47.2617357" LNG="8.5005908" NAME="Aeugst am Albis, Müliberg"/><Location ADDR="Wängistrasse, 8914 Aeugst am Albis, Switzerland" LAT="47.2620851" LNG="8.486462399999999" NAME="Aeugst am Albis, Wängi"/><Location ADDR="Aeugstertal, Kloster, 8914 Aeugst am Albis, Switzerland" LAT="47.2844004" LNG="8.4868072" NAME="Aeugstertal, Kloster"/><Location ADDR="Aeugstertal, Landhus, 8914 Aeugst am Albis, Switzerland" LAT="47.2797116" LNG="8.500819" NAME="Aeugstertal, Landhus"/><Location ADDR="Aeusseres Emdthal, 3711 Aeschi bei Spiez, Switzerland" LAT="46.659669" LNG="7.679324999999999" NAME="Aeusseres Emdthal"/><Location ADDR="Märwilerstrasse, Affeltrangen, Switzerland" LAT="47.5253925" LNG="9.0396437" NAME="Affeltrangen, Märwilerstrasse"/><Location ADDR="Bahnhof, 3463 Affoltern im Emmental, Switzerland" LAT="47.0783974" LNG="7.7494359" NAME="Affoltern a. A., Bahnhof"/><Location ADDR="Spitalweg, 8910 Affoltern am Albis, Switzerland" LAT="47.2831313" LNG="8.4565473" NAME="Affoltern a. A., Bezirksspital"/><Location ADDR="Blitzgbachweg, 8910 Affoltern am Albis, Switzerland" LAT="47.2862921" LNG="8.4540118" NAME="Affoltern a. A., Blitzgbach"/><Location ADDR="Friedhofstrasse, 8906 Bonstetten, Switzerland" LAT="47.31476" LNG="8.464" NAME="Affoltern a. A., Friedhof"/><Location ADDR="Kronenstrasse, 8006 Zürich, Switzerland" LAT="47.3874425" LNG="8.5376997" NAME="Affoltern a. A., Kronenplatz"/><Location ADDR="Sternen, Mettmenstetten, Switzerland" LAT="47.2413844" LNG="8.4856609" NAME="Affoltern a. A., Sternen"/><Location ADDR="Stigelistrasse, 8910 Affoltern am Albis, Switzerland" LAT="47.2783149" LNG="8.459655999999999" NAME="Affoltern a. A., Stigeli"/><Location ADDR="Im Weinberg, 8910 Affoltern am Albis, Switzerland" LAT="47.279948" LNG="8.462217299999999" NAME="Affoltern a. A., Weinberg"/><Location ADDR="Affoltern am Albis, Switzerland" LAT="47.2795081" LNG="8.4540083" NAME="Affoltern am Albis"/><Location ADDR="Bannholz, 3416 Affoltern im Emmental, Switzerland" LAT="47.0664388" LNG="7.722467699999999" NAME="Affoltern i.E., Bannholz"/><Location ADDR="Affoltern am Albis, Switzerland" LAT="47.2795081" LNG="8.4540083" NAME="Affoltern i.E., Dorf"/><Location ADDR="Affolternstrasse, 3462 Affoltern im Emmental, Switzerland" LAT="47.06287770000001" LNG="7.7410929" NAME="Affoltern-Weier"/><Location ADDR="Bahnhof, 3463 Affoltern im Emmental, Switzerland" LAT="47.0783974" LNG="7.7494359" NAME="Affoltern-Weier, Bahnhof"/><Location ADDR="Agarn, Abzw. St. Josefheim, 3952 Leuk, Switzerland" LAT="46.306615" LNG="7.653220999999999" NAME="Agarn, Abzw. St. Josefheim"/><Location ADDR="Agarn, Switzerland" LAT="46.2958644" LNG="7.6667211" NAME="Agarn, Dorf"/><Location ADDR="Agarone, i Lög, 6597 Cugnasco, Switzerland" LAT="46.17986399999999" LNG="8.9134" NAME="Agarone, i Lög"/><Location ADDR="Agarone, Bivio per Cugnasco, 6597 Cugnasco, Switzerland" LAT="46.179044" LNG="8.910036" NAME="Agarone, Bivio per Cugnasco"/><Location ADDR="Agarone, Chiossette, 6597 Cugnasco, Switzerland" LAT="46.178494" LNG="8.902574" NAME="Agarone, Chiossette"/><Location ADDR="Agarone, Colletto, 6597 Cugnasco, Switzerland" LAT="46.180722" LNG="8.911817" NAME="Agarone, Colletto"/><Location ADDR="Agarone, Paese, 6597 Cugnasco, Switzerland" LAT="46.178421" LNG="8.906082" NAME="Agarone, Paese"/><Location ADDR="Agarone, Piandesso, 6597 Cugnasco, Switzerland" LAT="46.178536" LNG="8.899310999999999" NAME="Agarone, Piandesso"/><Location ADDR="Via Roccolo, 6597 Cugnasco, Switzerland" LAT="46.1796879" LNG="8.9054437" NAME="Agarone, Roccolo"/><Location ADDR="Agarone, Ronco Morasci, 6597 Cugnasco, Switzerland" LAT="46.179434" LNG="8.912559" NAME="Agarone, Ronco Morasci"/><Location ADDR="8308 Agasul, Switzerland" LAT="47.416109" LNG="8.719723" NAME="Agasul"/><Location ADDR="Agiez, L'Epine, 1352 Agiez, Switzerland" LAT="46.71587" LNG="6.507795" NAME="Agiez, L'Epine"/><Location ADDR="Vers le Bordeloz, 1356 Les Clées, Switzerland" LAT="46.7379909" LNG="6.479899" NAME="Agiez, Vers-le-Pont"/><Location ADDR="Agno, Switzerland" LAT="45.9969839" LNG="8.8993906" NAME="Agno"/><Location ADDR="Airport Gazebo SA, Via Aeroporto, 6982 Agno, Switzerland" LAT="46.0028638" LNG="8.9065193" NAME="Agno, Aeroporto"/><Location ADDR="Chiesa, 6935 Bioggio, Switzerland" LAT="46.0261152" LNG="8.9086289" NAME="Agno, Chiesa"/><Location ADDR="Agno, Posta/FLP, 6982 Agno, Switzerland" LAT="45.996347" LNG="8.901233" NAME="Agno, Posta/FLP"/><Location ADDR="Agra Rd, Rajasthan, India" LAT="27.1603311" LNG="77.5719964" NAME="Agra, Bivio"/><Location ADDR="Via Agra, 6927 Collina d'Oro, Switzerland" LAT="45.9605934" LNG="8.9108208" NAME="Agra, Paese"/><Location ADDR="Via Roncone, 6927 Collina d'Oro, Switzerland" LAT="45.9647199" LNG="8.9109456" NAME="Agra, Roncone"/><Location ADDR="Via Rondelli, 6927 Collina d'Oro, Switzerland" LAT="45.9673604" LNG="8.9144769" NAME="Agra, Rondelli"/><Location ADDR="Agriswil, 3216 Ried bei Kerzers, Switzerland" LAT="46.9542125" LNG="7.1970573" NAME="Agriswil"/><Location ADDR="Aigle, Switzerland" LAT="46.3190253" LNG="6.970566" NAME="Aigle"/><Location ADDR="Aigle-Dépôt, 1860 Aigle, Switzerland" LAT="46.318288" LNG="6.975378" NAME="Aigle-Dépôt"/><Location ADDR="Aigle-Dépôt ASD, 1860 Aigle, Switzerland" LAT="46.316357" LNG="6.980562" NAME="Aigle-Dépôt ASD"/><Location ADDR="Aigle-Hôpital, 1860 Aigle, Switzerland" LAT="46.310468" LNG="6.966059" NAME="Aigle-Hôpital"/><Location ADDR="Parc Aventure - Aigle, Chemin de Fahy, 1860 Aigle, Switzerland" LAT="46.3164395" LNG="6.9875094" NAME="Aigle-Parc Aventure"/><Location ADDR="Place du Marché, 1860 Aigle, Switzerland" LAT="46.3173187" LNG="6.9698644" NAME="Aigle-Place-du-Marché"/><Location ADDR="Place du Marché, 1860 Aigle, Switzerland" LAT="46.3173187" LNG="6.9698644" NAME="Aigle-Place-du-Marché (DIAB)"/><Location ADDR="Rue Margencel, 1860 Aigle, Switzerland" LAT="46.3172782" LNG="6.9653493" NAME="Aigle, av. Margencel"/><Location ADDR="Chemin des Lieugex, 1860 Aigle, Switzerland" LAT="46.3228589" LNG="6.9510524" NAME="Aigle, ch. des Lieugex"/><Location ADDR="Aigle, gare, 1860 Aigle, Switzerland" LAT="46.3163331" LNG="6.9645883" NAME="Aigle, gare"/><Location ADDR="Aigle-Hôpital, 1860 Aigle, Switzerland" LAT="46.310468" LNG="6.966059" NAME="Aigle, hôpital"/><Location ADDR="Place du Marché, 1860 Aigle, Switzerland" LAT="46.3173187" LNG="6.9698644" NAME="Aigle, place du Marché"/><Location ADDR="Route d'Evian, 1860 Aigle, Switzerland" LAT="46.3154228" LNG="6.9492739" NAME="Aigle, rte d'Evian"/><Location ADDR="Chemin de Champex, 1860 Aigle, Switzerland" LAT="46.3119496" LNG="6.943960799999999" NAME="Aigle, Champex"/><Location ADDR="Aigle, Switzerland" LAT="46.3190253" LNG="6.970566" NAME="Aigle, Collège Grande Eau"/><Location ADDR="Aigle, Switzerland" LAT="46.3190253" LNG="6.970566" NAME="Aigle, Collège Planchette"/><Location ADDR="Chemin des Dents-du-Midi, 1860 Aigle, Switzerland" LAT="46.3141719" LNG="6.9584949" NAME="Aigle, Dents-du-Midi"/><Location ADDR="Golf-B, 1884 Villars-sur-Ollon, Switzerland" LAT="46.29758409999999" LNG="7.058538299999999" NAME="Aigle, Golf"/><Location ADDR="Chemin de la Mêlée, 1860 Aigle, Switzerland" LAT="46.3183349" LNG="6.936948699999999" NAME="Aigle, La Mêlée"/><Location ADDR="Aigle, Novassales, 1860 Aigle, Switzerland" LAT="46.314565" LNG="6.962739" NAME="Aigle, Novassales"/><Location ADDR="Chemin de Pautex, 1860 Aigle, Switzerland" LAT="46.3160243" LNG="6.955015899999999" NAME="Aigle, Pautex"/><Location ADDR="Chemin de Pré d'Emoz, 1860 Aigle, Switzerland" LAT="46.32162100000001" LNG="6.956247100000001" NAME="Aigle, Pré d'Emoz A"/><Location ADDR="Chemin de Pré d'Emoz, 1860 Aigle, Switzerland" LAT="46.32162100000001" LNG="6.956247100000001" NAME="Aigle, Pré d'Emoz B"/><Location ADDR="Aigle, Service Auto, 1860 Aigle, Switzerland" LAT="46.314929" LNG="6.940821" NAME="Aigle, Service Auto"/><Location ADDR="Aire-la-Ville, Switzerland" LAT="46.1905583" LNG="6.042898399999999" NAME="Aire-la-Ville"/><Location ADDR="Route Moulin-de-la-Ratte, 1288 Aire-la-Ville, Switzerland" LAT="46.1843655" LNG="6.0435589" NAME="Aire-la-Ville, Moulin-Ratte"/><Location ADDR="Route de Peney, 1214 Vernier, Switzerland" LAT="46.2070116" LNG="6.0673214" NAME="Aire-la-Ville, Pont-de-Peney"/><Location ADDR="Chemin de Treulaz, 1288 Aire-la-Ville, Switzerland" LAT="46.1849423" LNG="6.043279699999999" NAME="Aire-la-Ville, Treulaz"/><Location ADDR="Airolo, Switzerland" LAT="46.5286074" LNG="8.612374599999999" NAME="Airolo"/><Location ADDR="Airolo, Switzerland" LAT="46.5286074" LNG="8.612374599999999" NAME="Airolo FAB"/><Location ADDR="Airolo, Biv. per Madrano, 6780 Airolo, Switzerland" LAT="46.524412" LNG="8.629560999999999" NAME="Airolo, Biv. per Madrano"/><Location ADDR="Airolo, Bivio per Nante, 6780 Airolo, Switzerland" LAT="46.524514" LNG="8.605032999999999" NAME="Airolo, Bivio per Nante"/><Location ADDR="Airolo, Buco dei Cavalli, 6780 Airolo, Switzerland" LAT="46.528516" LNG="8.613057999999999" NAME="Airolo, Buco dei Cavalli"/><Location ADDR="Airolo, Centro Sportivo, 6780 Airolo, Switzerland" LAT="46.523288" LNG="8.619201" NAME="Airolo, Centro Sportivo"/><Location ADDR="Airolo, Cioss di fuori, 6780 Airolo, Switzerland" LAT="46.523802" LNG="8.589247000000002" NAME="Airolo, Cioss di fuori"/><Location ADDR="Via Funicolare Ritom, 6776 Quinto, Switzerland" LAT="46.5160995" LNG="8.6694521" NAME="Airolo, Funivia"/><Location ADDR="Galleria dei Banchi, 6780 Airolo, Switzerland" LAT="46.5437654" LNG="8.5651583" NAME="Airolo, Galleria Banchi"/><Location ADDR="Airolo, Switzerland" LAT="46.5286074" LNG="8.612374599999999" NAME="Airolo, Posta"/><Location ADDR="Viale Stazione, 6780 Airolo, Switzerland" LAT="46.52800269999999" LNG="8.6083462" NAME="Airolo, Stazione"/><Location ADDR="Al Motto, 6935 Bioggio, Switzerland" LAT="46.0254639" LNG="8.9098335" NAME="Al Motto Est"/><Location ADDR="Al Sasso, 6815, Switzerland" LAT="45.9422295" LNG="8.9371917" NAME="Al Sasso"/><Location ADDR="Alabardia, 6575, Switzerland" LAT="46.1370912" LNG="8.814445599999999" NAME="Alabardia"/><Location ADDR="Albbruck, Germany" LAT="47.59465729999999" LNG="8.1362987" NAME="Albbruck"/><Location ADDR="Burgrain, 6248 Alberswil, Switzerland" LAT="47.1428052" LNG="7.998460799999999" NAME="Alberswil, Burgrain"/><Location ADDR="Alberswil, Switzerland" LAT="47.1510987" LNG="8.0020094" NAME="Alberswil, Dorf"/><Location ADDR="Unterdorf, 6242 Wauwil, Switzerland" LAT="47.18451" LNG="8.01918" NAME="Alberswil, Unterdorf"/><Location ADDR="1669 Albeuve, Switzerland" LAT="46.517776" LNG="7.056384" NAME="Albeuve"/><Location ADDR="Albigna, 7603 Bregaglia, Switzerland" LAT="46.337895" LNG="9.645484" NAME="Albigna"/><Location ADDR="Albinen, Dorben, 3955 Albinen, Switzerland" LAT="46.352722" LNG="7.625159999999999" NAME="Albinen, Dorben"/><Location ADDR="Albinen, Panorama, 3955 Albinen, Switzerland" LAT="46.33473499999999" LNG="7.638941999999999" NAME="Albinen, Panorama"/><Location ADDR="Albinen, Post, 3955 Albinen, Switzerland" LAT="46.340229" LNG="7.634845" NAME="Albinen, Post"/><Location ADDR="Albinen, Rhodania, 3955 Albinen, Switzerland" LAT="46.337123" LNG="7.636198" NAME="Albinen, Rhodania"/><Location ADDR="Albinen, Schreinerei, 3955 Albinen, Switzerland" LAT="46.34231" LNG="7.633046999999999" NAME="Albinen, Schreinerei"/><Location ADDR="Albinen, Schwelli, 3955 Albinen, Switzerland" LAT="46.343498" LNG="7.632701" NAME="Albinen, Schwelli"/><Location ADDR="Albinenleitern, Abzw. Flaschen, 3955 Albinen, Switzerland" LAT="46.35606600000001" LNG="7.621052" NAME="Albinenleitern, Abzw. Flaschen"/><Location ADDR="Albinenleitern, Flaschen, 3955 Albinen, Switzerland" LAT="46.360822" LNG="7.622939000000001" NAME="Albinenleitern, Flaschen"/><Location ADDR="Albligen, Abzw. Harris, 3183 Schwarzenburg, Switzerland" LAT="46.846112" LNG="7.322921000000001" NAME="Albligen, Abzw. Harris"/><Location ADDR="Wahlern, Switzerland" LAT="46.8184541" LNG="7.341120300000001" NAME="Albligen, Dorf"/><Location ADDR="Kurried, 3183 Schwarzenburg, Switzerland" LAT="46.85679409999999" LNG="7.316179999999999" NAME="Albligen, Kurried"/><Location ADDR="Albligen, Ruchmühle, 3183 Schwarzenburg, Switzerland" LAT="46.846439" LNG="7.336346" NAME="Albligen, Ruchmühle"/><Location ADDR="Albonago, 6962 Lugano, Switzerland" LAT="46.008534" LNG="8.975118" NAME="Albonago"/><Location ADDR="Albonago, ai Ronchi, 6962 Lugano, Switzerland" LAT="46.014804" LNG="8.973229" NAME="Albonago, ai Ronchi"/><Location ADDR="Albonago, al Bosco, 6962 Lugano, Switzerland" LAT="46.014325" LNG="8.974041999999999" NAME="Albonago, al Bosco"/><Location ADDR="Albonago, Funicolare, 6962 Lugano, Switzerland" LAT="46.008575" LNG="8.974745" NAME="Albonago, Funicolare"/><Location ADDR="Gradinata di Albonago, 6962 Lugano, Switzerland" LAT="46.0101065" LNG="8.9732032" NAME="Albonago, Gradinata"/><Location ADDR="Albonago, Paese, 6962 Lugano, Switzerland" LAT="46.011329" LNG="8.974693" NAME="Albonago, Paese"/><Location ADDR="Albonago, Roccolo, 6977 Lugano, Switzerland" LAT="46.007373" LNG="8.975125000000002" NAME="Albonago, Roccolo"/><Location ADDR="Albonago, Sentiero Castagni, 6962 Lugano, Switzerland" LAT="46.01302" LNG="8.974715" NAME="Albonago, Sentiero Castagni"/><Location ADDR="Albonago, Sentiero Cavan, 6962 Lugano, Switzerland" LAT="46.012912" LNG="8.972116999999999" NAME="Albonago, Sentiero Cavan"/><Location ADDR="Albonago, Via Max Frisch, 6962 Lugano, Switzerland" LAT="46.013296" LNG="8.971611" NAME="Albonago, Via Max Frisch"/><Location ADDR="Albonago, Via Ruscello, 6962 Lugano, Switzerland" LAT="46.011013" LNG="8.971468999999999" NAME="Albonago, Via Ruscello"/><Location ADDR="Alchenflüh, Bernstrasse Ost, 3421 Lyssach, Switzerland" LAT="47.077043" LNG="7.574224" NAME="Alchenflüh, Bernstrasse Ost"/><Location ADDR="Alchenstorf, Switzerland" LAT="47.1240604" LNG="7.643940499999999" NAME="Alchenstorf, Dorf"/><Location ADDR="Ober Alchenstorf, 3473 Alchenstorf, Switzerland" LAT="47.124581" LNG="7.6454321" NAME="Alchenstorf, Oberalchenstorf"/><Location ADDR="Alchenstorf, Unteralchenstorf, 3473 Alchenstorf, Switzerland" LAT="47.126108" LNG="7.626773999999999" NAME="Alchenstorf, Unteralchenstorf"/><Location ADDR="Wil, 3473 Alchenstorf, Switzerland" LAT="47.113965" LNG="7.645978100000001" NAME="Alchenstorf, Wil"/><Location ADDR="Aldesago, 6974, Switzerland" LAT="46.0089493" LNG="8.979180099999999" NAME="Aldesago"/><Location ADDR="Aldesago, Arcate, 6974 Lugano, Switzerland" LAT="46.00974799999999" LNG="8.980433999999999" NAME="Aldesago, Arcate"/><Location ADDR="Aldesago, Narbostra, 6974 Lugano, Switzerland" LAT="46.008636" LNG="8.977523" NAME="Aldesago, Narbostra"/><Location ADDR="Aldesago, Paese, 6974 Lugano, Switzerland" LAT="46.007295" LNG="8.979512000000001" NAME="Aldesago, Paese"/><Location ADDR="Sentiero Pontaccio, 6974 Lugano, Switzerland" LAT="46.0093278" LNG="8.9759137" NAME="Aldesago, Pontaccio"/><Location ADDR="Via Ronchée, 6974 Lugano, Switzerland" LAT="46.0090909" LNG="8.9784429" NAME="Aldesago, Ronchée"/><Location ADDR="Via Rava, 6974 Lugano, Switzerland" LAT="46.0084162" LNG="8.9794495" NAME="Aldesago, Via Rava"/><Location ADDR="Alesse, 1905, Switzerland" LAT="46.15009" LNG="7.05333" NAME="Alesse"/><Location ADDR="Dorfstrasse, 9249 Uzwil, Switzerland" LAT="47.4480793" LNG="9.1087927" NAME="Algetshausen, Dorf"/><Location ADDR="All'Acqua, 6781 Bedretto, Switzerland" LAT="46.4864734" LNG="8.4747571" NAME="All'Acqua"/><Location ADDR="Allaman, Switzerland" LAT="46.4709528" LNG="6.3957297" NAME="Allaman"/><Location ADDR="Allaman, gare, 1165 Allaman, Switzerland" LAT="46.47587499999999" LNG="6.399661999999999" NAME="Allaman, gare"/><Location ADDR="Alle, Switzerland" LAT="47.4260575" LNG="7.1278409" NAME="Alle"/><Location ADDR="Alle, centre sportif / loisirs, 2942 Alle, Switzerland" LAT="47.424854" LNG="7.121384" NAME="Alle, centre sportif / loisirs"/><Location ADDR="Alle, poste/gare, 2942 Alle, Switzerland" LAT="47.424505" LNG="7.128648999999999" NAME="Alle, poste/gare"/><Location ADDR="Rue de l'Eglise, 2942 Alle, Switzerland" LAT="47.4267481" LNG="7.1296804" NAME="Alle, rue de l'église"/><Location ADDR="ZI, 1902 Evionnaz, Switzerland" LAT="46.16643320000001" LNG="7.0253502" NAME="Alle, zone industrielle"/><Location ADDR="Allenlüften, Dorf, 3205 Mühleberg, Switzerland" LAT="46.946157" LNG="7.271884999999999" NAME="Allenlüften, Dorf"/><Location ADDR="Allens, 1304 Cossonay, Switzerland" LAT="46.5987731" LNG="6.5105528" NAME="Allens, village"/><Location ADDR="Allensbach, Germany" LAT="47.7171871" LNG="9.0663457" NAME="Allensbach"/><Location ADDR="Allenwinden, 8560 Märstetten, Switzerland" LAT="47.59559110000001" LNG="9.0684925" NAME="Allenwinden, Dorf"/><Location ADDR="Allenwinden, 8624 Gossau, Switzerland" LAT="47.3045327" LNG="8.7793701" NAME="Allenwinden, Egg"/><Location ADDR="Allenwinden, 8624 Gossau, Switzerland" LAT="47.3045327" LNG="8.7793701" NAME="Allenwinden, Grüt"/><Location ADDR="Allenwindenstrasse, Baar, Switzerland" LAT="47.1583153" LNG="8.559168999999999" NAME="Allenwinden, Inkenberg"/><Location ADDR="St. Meinrad, 6319 Baar, Switzerland" LAT="47.1597387" LNG="8.5582269" NAME="Allenwinden, St. Meinrad"/><Location ADDR="Allerheiligenberg, Höhenklinik, 4615 Hägendorf, Switzerland" LAT="47.352371" LNG="7.814025999999999" NAME="Allerheiligenberg, Höhenklinik"/><Location ADDR="Allerheiligenberg, Rank, 4614 Hägendorf, Switzerland" LAT="47.344389" LNG="7.817913" NAME="Allerheiligenberg, Rank"/><Location ADDR="Allerheiligenberg, Rest. Aller, 4615 Hägendorf, Switzerland" LAT="47.35208" LNG="7.817849" NAME="Allerheiligenberg, Rest. Aller"/><Location ADDR="Allières, 69870 Chambost-Allières, France" LAT="46.0175323" LNG="4.4987492" NAME="Allières"/><Location ADDR="Allmenalp, 3718 Kandersteg, Switzerland" LAT="46.492292" LNG="7.649446999999999" NAME="Allmenalp"/><Location ADDR="Allmend, 3661 Uetendorf, Switzerland" LAT="46.77409" LNG="7.595320000000001" NAME="Allmend"/><Location ADDR="Allmendhubel (Standseilbahn), 3825 Lauterbrunnen, Switzerland" LAT="46.563841" LNG="7.889075000000001" NAME="Allmendhubel (Standseilbahn)"/><Location ADDR="Gartenstrasse, 3125 Toffen, Switzerland" LAT="46.8734493" LNG="7.490921699999999" NAME="Allmendingen b. B, Garten-C."/><Location ADDR="Hirschenweg, 3112 Allmendingen, Switzerland" LAT="46.9158802" LNG="7.519491200000001" NAME="Allmendingen b. B, Hirschen"/><Location ADDR="Käserei, 3635 Uebeschi, Switzerland" LAT="46.73855229999999" LNG="7.5550772" NAME="Allmendingen b. B, Käserei"/><Location ADDR="Allmendingen b.Thun,Wendeplatz, 3608 Thun, Switzerland" LAT="46.74147900000001" LNG="7.593078999999999" NAME="Allmendingen b.Thun,Wendeplatz"/><Location ADDR="3608 Allmendingen bei Thun, Switzerland" LAT="46.742" LNG="7.593999999999999" NAME="Allmendingen bei Thun, Dorf"/><Location ADDR="Allmendingen bei Thun, RAZ, 3608 Thun, Switzerland" LAT="46.737006" LNG="7.587728" NAME="Allmendingen bei Thun, RAZ"/><Location ADDR="Allschwil, Switzerland" LAT="47.5528925" LNG="7.5433615" NAME="Allschwil, Bettenacker"/><Location ADDR="Binningerstrasse, Allschwil, Switzerland" LAT="47.54804360000001" LNG="7.547698199999999" NAME="Allschwil, Binningerstrasse"/><Location ADDR="Allschwil, Switzerland" LAT="47.5528925" LNG="7.5433615" NAME="Allschwil, Dorf"/><Location ADDR="Friedhofweg, 4104 Oberwil, Switzerland" LAT="47.5110104" LNG="7.5402616" NAME="Allschwil, Friedhof"/><Location ADDR="Im Gartenhof, 4123 Allschwil, Switzerland" LAT="47.5481169" LNG="7.5440505" NAME="Allschwil, Gartenhof"/><Location ADDR="Gartenstrasse, 4123 Allschwil, Switzerland" LAT="47.5512478" LNG="7.541856299999999" NAME="Allschwil, Gartenstrasse"/><Location ADDR="Grabenring, 4123 Allschwil, Switzerland" LAT="47.5546328" LNG="7.539552199999999" NAME="Allschwil, Grabenring"/><Location ADDR="Hagmattstrasse, 4123 Allschwil, Switzerland" LAT="47.5568985" LNG="7.5431261" NAME="Allschwil, Hagmattstrasse"/><Location ADDR="Im Brühl, 4123 Allschwil, Switzerland" LAT="47.5571938" LNG="7.546764" NAME="Allschwil, Im Brühl"/><Location ADDR="Allschwil, Kirche, 4123 Allschwil, Switzerland" LAT="47.553975" LNG="7.553978000000001" NAME="Allschwil, Kirche"/><Location ADDR="Kreuzstrasse, 4123 Allschwil, Switzerland" LAT="47.56010999999999" LNG="7.5497444" NAME="Allschwil, Kreuzstrasse"/><Location ADDR="Lettenweg, 4123 Allschwil, Switzerland" LAT="47.5494486" LNG="7.547361800000001" NAME="Allschwil, Letten"/><Location ADDR="Lindenpl., 4123 Allschwil, Switzerland" LAT="47.5583884" LNG="7.560207699999999" NAME="Allschwil, Lindenplatz"/><Location ADDR="Merkurstrasse, Allschwil, Switzerland" LAT="47.5541087" LNG="7.560297299999999" NAME="Allschwil, Merkurstrasse"/><Location ADDR="Paradies, 4104 Oberwil, Switzerland" LAT="47.529351" LNG="7.543115800000001" NAME="Allschwil, Paradies"/><Location ADDR="Parkallee, 4123 Allschwil, Switzerland" LAT="47.5545294" LNG="7.5536372" NAME="Allschwil, Parkallee"/><Location ADDR="Reservoirweg, 4123 Allschwil, Switzerland" LAT="47.5480551" LNG="7.523876" NAME="Allschwil, Reservoir"/><Location ADDR="Rosenbergweg, 4123 Allschwil, Switzerland" LAT="47.5530832" LNG="7.532855699999999" NAME="Allschwil, Rosenberg"/><Location ADDR="Spitzwald, 4123 Allschwil, Switzerland" LAT="47.537871" LNG="7.546997699999999" NAME="Allschwil, Spitzwald"/><Location ADDR="Stegmühleweg, 4123 Allschwil, Switzerland" LAT="47.5513201" LNG="7.5278787" NAME="Allschwil, Stegmühleweg"/><Location ADDR="Allschwil, Switzerland" LAT="47.5528925" LNG="7.5433615" NAME="Allschwil, Tramschlaufe"/><Location ADDR="Allschwil, Ziegelei, 4123 Allschwil, Switzerland" LAT="47.551633" LNG="7.548221000000001" NAME="Allschwil, Ziegelei"/><Location ADDR="Allschwil, Ziegelhof, 4123 Allschwil, Switzerland" LAT="47.54242499999999" LNG="7.512167000000001" NAME="Allschwil, Ziegelhof"/><Location ADDR="Allschwil, Zum Sporn, 4123 Allschwil, Switzerland" LAT="47.54308" LNG="7.548097" NAME="Allschwil, Zum Sporn"/><Location ADDR="Almens, Switzerland" LAT="46.7375722" LNG="9.455841399999999" NAME="Almens"/><Location ADDR="Alosen, 6315, Switzerland" LAT="47.14125" LNG="8.63556" NAME="Alosen"/><Location ADDR="Alp Camp, 7742 Poschiavo, Switzerland" LAT="46.401416" LNG="10.118709" NAME="Alp Camp"/><Location ADDR="Alp Darlux, 7482 Bergün/Bravuogn, Switzerland" LAT="46.624462" LNG="9.779869" NAME="Alp Darlux"/><Location ADDR="Alp Grüm, 7710 Poschiavo, Switzerland" LAT="46.37475" LNG="10.031149" NAME="Alp Grüm"/><Location ADDR="Alp Languard, 7504 Pontresina, Switzerland" LAT="46.487801" LNG="9.921890999999999" NAME="Alp Languard"/><Location ADDR="Alp Nagens, 7032 Laax, Switzerland" LAT="46.85545399999999" LNG="9.235266000000001" NAME="Alp Nagens"/><Location ADDR="Marais de Raux, 05400 Châteauneuf-d'Ozé, France" LAT="44.501921" LNG="5.933704" NAME="Alp Naraus"/><Location ADDR="Alp Nova, 7136 Obersaxen, Switzerland" LAT="46.6991017" LNG="9.0937416" NAME="Alp Nouva"/><Location ADDR="Alp Pradaschier, 7075 Churwalden, Switzerland" LAT="46.783158" LNG="9.520239" NAME="Alp Pradaschier"/><Location ADDR="Alp Sellamatt, 9656 Alt St. Johann, Switzerland" LAT="47.182151" LNG="9.296336" NAME="Alp Sellamatt"/><Location ADDR="Alp Stätz, 7075 Churwalden, Switzerland" LAT="46.764683" LNG="9.531625000000002" NAME="Alp Stätz"/><Location ADDR="Alp Trider Sattel, 7563 Samnaun, Switzerland" LAT="46.970172" LNG="10.367265" NAME="Alp Trider Sattel"/><Location ADDR="Alpboden, 6383, Switzerland" LAT="46.9180135" LNG="8.439625399999999" NAME="Alpboden"/><Location ADDR="Alpe di Neggia, 6574 Gambarogno, Switzerland" LAT="46.1119149" LNG="8.8452378" NAME="Alpe di Neggia, Alpe"/><Location ADDR="Alpe di Neggia, Bv. Trecciura, 6574 Gambarogno, Switzerland" LAT="46.11988299999999" LNG="8.849171000000002" NAME="Alpe di Neggia, Bv. Trecciura"/><Location ADDR="Alpe Casaccia, 6718, Switzerland" LAT="46.5485564" LNG="8.8146925" NAME="Alpe Casaccia"/><Location ADDR="Alpe Foppa, 6802, Switzerland" LAT="46.1225292" LNG="8.8940567" NAME="Alpe Foppa"/><Location ADDR="Alpiglen, 3818 Grindelwald, Switzerland" LAT="46.6000807" LNG="8.0019169" NAME="Alpiglen"/><Location ADDR="Alpnach, Switzerland" LAT="46.9380412" LNG="8.2701754" NAME="Alpnach Dorf"/><Location ADDR="Untere Feldstrasse, 6055 Alpnach, Switzerland" LAT="46.9353864" LNG="8.264692499999999" NAME="Alpnach Dorf, untere Feldstr."/><Location ADDR="Bahnhofstrasse, 6055 Alpnach, Switzerland" LAT="46.94086" LNG="8.273" NAME="Alpnach Dorf, Bahnhof"/><Location ADDR="Alpnach Dorf, Hofmättelikreuz, 6055 Alpnach, Switzerland" LAT="46.93801" LNG="8.269358" NAME="Alpnach Dorf, Hofmättelikreuz"/><Location ADDR="Alpnach Dorf, Kantonalbank, 6055 Alpnach, Switzerland" LAT="46.939674" LNG="8.270605" NAME="Alpnach Dorf, Kantonalbank"/><Location ADDR="Schoried, 6055 Alpnach, Switzerland" LAT="46.9330559" LNG="8.2559679" NAME="Alpnach Dorf, Schoried"/><Location ADDR="6053 Alpnachstad, Switzerland" LAT="46.954394" LNG="8.276204" NAME="Alpnachstad"/><Location ADDR="Alpnachstad PB, 6053 Alpnach, Switzerland" LAT="46.95549399999999" LNG="8.277182999999999" NAME="Alpnachstad PB"/><Location ADDR="Alpnachstad SGV, Alpnach, Switzerland" LAT="46.955751" LNG="8.278947" NAME="Alpnachstad SGV"/><Location ADDR="Alpnachstad, Bahnhof, 6053 Alpnach, Switzerland" LAT="46.9550868" LNG="8.2777773" NAME="Alpnachstad, Bahnhof"/><Location ADDR="Eigenweg, 8849 Alpthal, Switzerland" LAT="47.0882271" LNG="8.718749299999999" NAME="Alpthal, Eigen"/><Location ADDR="Gribschweg, 8849 Alpthal, Switzerland" LAT="47.0829526" LNG="8.721821499999999" NAME="Alpthal, Gribsch"/><Location ADDR="Grundstrasse, Schwyz, Switzerland" LAT="47.0103616" LNG="8.659223599999999" NAME="Alpthal, Grund"/><Location ADDR="Malosenweg, 8849 Alpthal, Switzerland" LAT="47.0598103" LNG="8.711520499999999" NAME="Alpthal, Malosen"/><Location ADDR="Archivgasse, 6430 Schwyz, Switzerland" LAT="47.02055" LNG="8.6533227" NAME="Alpthal, Post"/><Location ADDR="Rütliweg, 8849 Alpthal, Switzerland" LAT="47.06380679999999" LNG="8.7121558" NAME="Alpthal, Rütli"/><Location ADDR="Hintere Chly-Schnürlismatt, 8849 Alpthal, Switzerland" LAT="47.0755854" LNG="8.7226889" NAME="Alpthal, Schnüerlismatt"/><Location ADDR="Stei, 8849 Alpthal, Switzerland" LAT="47.0551678" LNG="8.7096144" NAME="Alpthal, Stei"/><Location ADDR="Alt St. Johann (Sellamattbahn), 9656 Alt St. Johann, Switzerland" LAT="47.193356" LNG="9.288858000000001" NAME="Alt St. Johann (Sellamattbahn)"/><Location ADDR="Alt St Johann, Switzerland" LAT="47.1972495" LNG="9.3082874" NAME="Alt St. Johann, Dorf"/><Location ADDR="Horb, 9656 Alt St. Johann, Switzerland" LAT="47.1864061" LNG="9.2669649" NAME="Alt St. Johann, Horb"/><Location ADDR="Altanca, 6776 Quinto, Switzerland" LAT="46.5229939" LNG="8.6737547" NAME="Altanca"/><Location ADDR="Altanca FPR, 6776 Quinto, Switzerland" LAT="46.523104" LNG="8.674603" NAME="Altanca FPR"/><Location ADDR="Altavilla, 3280 Murten, Switzerland" LAT="46.9337544" LNG="7.154061" NAME="Altavilla"/><Location ADDR="Feld, 6147 Altbüron, Switzerland" LAT="47.190036" LNG="7.8699688" NAME="Altbüron, Feld"/><Location ADDR="Grünbach, 6147 Altbüron, Switzerland" LAT="47.1956559" LNG="7.8660934" NAME="Altbüron, Gruenbach"/><Location ADDR="Altbüron, Halde, 6147 Altbüron, Switzerland" LAT="47.183529" LNG="7.876316" NAME="Altbüron, Halde"/><Location ADDR="Hiltbrunnen, 6147 Altbüron, Switzerland" LAT="47.1786118" LNG="7.8827339" NAME="Altbüron, Hiltbrunnen"/><Location ADDR="Ludligen, 6147 Altbüron, Switzerland" LAT="47.1999919" LNG="7.861306" NAME="Altbüron, Ludligen"/><Location ADDR="Altbüron, Post, 6147 Altbüron, Switzerland" LAT="47.181006" LNG="7.879752" NAME="Altbüron, Post"/><Location ADDR="Altdorf, Switzerland" LAT="46.8821272" LNG="8.642843599999999" NAME="Altdorf"/><Location ADDR="Altdorf, Switzerland" LAT="47.7840728" LNG="8.6586546" NAME="Altdorf SH, Dorf"/><Location ADDR="Allmendstrasse, 6460 Altdorf, Switzerland" LAT="46.890413" LNG="8.6281919" NAME="Altdorf UR, Allmend"/><Location ADDR="Bahnhofstrasse, 6460 Altdorf, Switzerland" LAT="46.87911760000001" LNG="8.6377452" NAME="Altdorf UR, Bahnhof"/><Location ADDR="Altdorf UR, Chornmatt, 6460 Altdorf, Switzerland" LAT="46.881093" LNG="8.630804999999999" NAME="Altdorf UR, Chornmatt"/><Location ADDR="Altdorf UR, Dätwyler AG, 6460 Altdorf, Switzerland" LAT="46.877319" LNG="8.646714" NAME="Altdorf UR, Dätwyler AG"/><Location ADDR="Klostergasse, 6460 Altdorf, Switzerland" LAT="46.8787564" LNG="8.6418635" NAME="Altdorf UR, Frauenkloster"/><Location ADDR="Gemeindehaus, 6467 Schattdorf, Switzerland" LAT="46.8645514" LNG="8.6553335" NAME="Altdorf UR, Gemeindehaus"/><Location ADDR="Grossmattweg, 6460 Altdorf, Switzerland" LAT="46.8792373" LNG="8.632734" NAME="Altdorf UR, Grossmatt"/><Location ADDR="Altdorf UR, Hagenschulhaus, 6460 Altdorf, Switzerland" LAT="46.879687" LNG="8.638764" NAME="Altdorf UR, Hagenschulhaus"/><Location ADDR="Altdorf UR, Kollegium, 6460 Altdorf, Switzerland" LAT="46.87524" LNG="8.650131" NAME="Altdorf UR, Kollegium"/><Location ADDR="Langmatt, 6460 Bürglen, Switzerland" LAT="46.8709674" LNG="8.6446275" NAME="Altdorf UR, Langmatt"/><Location ADDR="Moosbadweg, 6460 Altdorf, Switzerland" LAT="46.8896552" LNG="8.6320158" NAME="Altdorf UR, Moosbad"/><Location ADDR="Altdorf UR, Post, 6460 Altdorf, Switzerland" LAT="46.881341" LNG="8.642356" NAME="Altdorf UR, Post"/><Location ADDR="Pro Familiaweg, 6460 Altdorf, Switzerland" LAT="46.873416" LNG="8.6362177" NAME="Altdorf UR, Pro Familia"/><Location ADDR="Ringligasse, 6460 Altdorf, Switzerland" LAT="46.8721908" LNG="8.6423194" NAME="Altdorf UR, Ringli"/><Location ADDR="Altdorf UR, Ruberst, 6460 Altdorf, Switzerland" LAT="46.86635099999999" LNG="8.634807" NAME="Altdorf UR, Ruberst"/><Location ADDR="Spital, 6460 Altdorf, Switzerland" LAT="46.8830292" LNG="8.6375001" NAME="Altdorf UR, Spital"/><Location ADDR="Steinmattstrasse, 6460 Altdorf, Switzerland" LAT="46.8721864" LNG="8.6333053" NAME="Altdorf UR, Steinmattstrasse"/><Location ADDR="Telldenkmal, Rathauspl., 6460 Altdorf, Switzerland" LAT="46.8818211" LNG="8.6439705" NAME="Altdorf UR, Telldenkmal"/><Location ADDR="Altenburg, 79798 Jestetten, Germany" LAT="47.6577745" LNG="8.5993203" NAME="Altenburg-Rheinau"/><Location ADDR="Anwandel, 79798 Jestetten, Germany" LAT="47.6582448" LNG="8.606888699999999" NAME="Altenburg, Anwandel"/><Location ADDR="Altenburg, Germany" LAT="50.9931202" LNG="12.4366572" NAME="Altenburg, Dorf"/><Location ADDR="Brunnenstraße, 04600 Altenburg, Germany" LAT="50.9933557" LNG="12.4573931" NAME="Altenburg, Dorfbrunnen"/><Location ADDR="Industriegebiet, 89447 Zöschingen, Germany" LAT="48.6694676" LNG="10.3317772" NAME="Altenburg, Industriegebiet"/><Location ADDR="Rathausstraße, 72124 Pliezhausen, Germany" LAT="48.55771480000001" LNG="9.2054817" NAME="Altenburg, Rathaus"/><Location ADDR="Bei der Schule, 72768 Reutlingen, Germany" LAT="48.545161" LNG="9.1861316" NAME="Altenburg, Schule"/><Location ADDR="Altendorf, Switzerland" LAT="47.1914822" LNG="8.829904299999999" NAME="Altendorf"/><Location ADDR="Altendorf ZSG, 8852 Altendorf, Switzerland" LAT="47.194895" LNG="8.832481" NAME="Altendorf ZSG"/><Location ADDR="Bahnhofstrasse, 8852 Altendorf, Switzerland" LAT="47.1935158" LNG="8.8225411" NAME="Altendorf, Bahnhof"/><Location ADDR="Altendorf, Bitzi, 8852 Altendorf, Switzerland" LAT="47.190919" LNG="8.835373" NAME="Altendorf, Bitzi"/><Location ADDR="Letzistrasse, 8852 Altendorf, Switzerland" LAT="47.1951705" LNG="8.8136317" NAME="Altendorf, Letzi"/><Location ADDR="Lidwil, 8852 Altendorf, Switzerland" LAT="47.1993872" LNG="8.8085185" NAME="Altendorf, Lidwil"/><Location ADDR="Altendorf, Schweizerhofplatz, 8852 Altendorf, Switzerland" LAT="47.191985" LNG="8.832102" NAME="Altendorf, Schweizerhofplatz"/><Location ADDR="Altendorf, Stoglen, 8852 Altendorf, Switzerland" LAT="47.192742" LNG="8.827449999999999" NAME="Altendorf, Stoglen"/><Location ADDR="Talstrasse, 8852 Altendorf, Switzerland" LAT="47.1942061" LNG="8.8087862" NAME="Altendorf, Talstrasse"/><Location ADDR="Altendorf, Tevag, 8852 Altendorf, Switzerland" LAT="47.20067" LNG="8.807763999999999" NAME="Altendorf, Tevag"/><Location ADDR="Thal, Switzerland" LAT="47.4672487" LNG="9.5662899" NAME="Altenrhein"/><Location ADDR="Altenrhein Schifflände, 9423 Thal, Switzerland" LAT="47.498648" LNG="9.560286999999999" NAME="Altenrhein Schifflände"/><Location ADDR="Rheinstraße, 6974 Gaißau, Austria" LAT="47.4846555" LNG="9.581451699999999" NAME="Altenrhein, Am Rhein"/><Location ADDR="Thal, Switzerland" LAT="47.4672487" LNG="9.5662899" NAME="Altenrhein, Dorf"/><Location ADDR="Altenrhein, Flugplatz, 9423 Thal, Switzerland" LAT="47.488559" LNG="9.551122999999999" NAME="Altenrhein, Flugplatz"/><Location ADDR="Hegistrasse, 9425 Thal, Switzerland" LAT="47.47735489999999" LNG="9.5730547" NAME="Altenrhein, Hegi"/><Location ADDR="Altenrhein, Markthalle, 9422 Thal, Switzerland" LAT="47.48540999999999" LNG="9.54764" NAME="Altenrhein, Markthalle"/><Location ADDR="Schulhaus Gitzbüchel, 9426 Lutzenberg, Switzerland" LAT="47.4599537" LNG="9.5762419" NAME="Altenrhein, Schulhaus"/><Location ADDR="Alter Zoll, 9450, Switzerland" LAT="47.3681717" LNG="9.5212224" NAME="Alter Zoll"/><Location ADDR="Beniwil, Alterswil, Switzerland" LAT="46.798075" LNG="7.2405189" NAME="Alterswil FR, Beniwil"/><Location ADDR="Dorfpl., 1735 Giffers, Switzerland" LAT="46.7615692" LNG="7.2093921" NAME="Alterswil FR, Dorfplatz"/><Location ADDR="Galteren, 1712 Alterswil, Switzerland" LAT="46.8031794" LNG="7.2289872" NAME="Alterswil FR, Galteren"/><Location ADDR="Geriwil, 1715 Alterswil, Switzerland" LAT="46.792708" LNG="7.2667357" NAME="Alterswil FR, Geriwil"/><Location ADDR="Hofmatt, 1715 Alterswil, Switzerland" LAT="46.7832436" LNG="7.273222899999999" NAME="Alterswil FR, Hofmatt"/><Location ADDR="Wengliswil, 1715 Alterswil, Switzerland" LAT="46.7790614" LNG="7.281475299999999" NAME="Alterswil FR, Wengliswil"/><Location ADDR="Wilersguet, 1715 Alterswil, Switzerland" LAT="46.7696698" LNG="7.2847453" NAME="Alterswil FR, Wilersguet"/><Location ADDR="8573 Alterswilen, Switzerland" LAT="47.616667" LNG="9.15" NAME="Alterswilen"/><Location ADDR="Altikon, Brückenwaage, 8479 Altikon, Switzerland" LAT="47.5731865" LNG="8.782154199999999" NAME="Altikon, Brückenwaage"/><Location ADDR="Hertenstrasse, 8545 Rickenbach, Switzerland" LAT="47.5607901" LNG="8.795426299999999" NAME="Altikon, Herten"/><Location ADDR="8573 Altishausen, Switzerland" LAT="47.60124400000001" LNG="9.170644" NAME="Altishausen"/><Location ADDR="Altishofen, Bäckerei, 6246 Altishofen, Switzerland" LAT="47.196167" LNG="7.968295" NAME="Altishofen, Bäckerei"/><Location ADDR="Unterdorf, 6246 Altishofen, Switzerland" LAT="47.2014217" LNG="7.9693669" NAME="Altishofen, Unterdorf"/><Location ADDR="Altmarkt, 4410, Switzerland" LAT="47.4770133" LNG="7.7477988" NAME="Altmarkt"/><Location ADDR="Altmatt, 6043, Switzerland" LAT="47.0712339" LNG="8.370952599999999" NAME="Altmatt"/><Location ADDR="Altnau, Switzerland" LAT="47.6106454" LNG="9.2573197" NAME="Altnau"/><Location ADDR="Seeweg, 8595 Altnau, Switzerland" LAT="47.62148819999999" LNG="9.2710297" NAME="Altnau (See)"/><Location ADDR="Bahnhofstrasse, 8595 Altnau, Switzerland" LAT="47.6161118" LNG="9.2617053" NAME="Altnau, Bahnhof"/><Location ADDR="Bei der Kirche, 8585 Langrickenbach, Switzerland" LAT="47.5934665" LNG="9.248655399999999" NAME="Altnau, Kirche"/><Location ADDR="Altnau, Längiacker, 8595 Altnau, Switzerland" LAT="47.618361" LNG="9.265367" NAME="Altnau, Längiacker"/><Location ADDR="Poststrasse, 8586 Erlen, Switzerland" LAT="47.5508719" LNG="9.2280449" NAME="Altnau, Post"/><Location ADDR="Rösslistrasse, 8586 Erlen, Switzerland" LAT="47.5518003" LNG="9.230863399999999" NAME="Altnau, Rössli"/><Location ADDR="Altnau, Schmitteweg, 8595 Altnau, Switzerland" LAT="47.611905" LNG="9.255419999999999" NAME="Altnau, Schmitteweg"/><Location ADDR="Seezelgstrasse, 8595 Altnau, Switzerland" LAT="47.6133441" LNG="9.263651" NAME="Altnau, Seezelgstrasse"/><Location ADDR="Unterdorf, 8585 Langrickenbach, Switzerland" LAT="47.6061045" LNG="9.2292019" NAME="Altnau, Unterdorf"/><Location ADDR="Unterhof, 8595 Altnau, Switzerland" LAT="47.6151952" LNG="9.2628611" NAME="Altnau, Unterhof"/><Location ADDR="2545 Altreu, Switzerland" LAT="47.205557" LNG="7.455571" NAME="Altreu"/><Location ADDR="Altreu, Info Zentrum Witi, 2545 Selzach, Switzerland" LAT="47.19176" LNG="7.449236999999999" NAME="Altreu, Info Zentrum Witi"/><Location ADDR="Altreu, Mitte, 2545 Selzach, Switzerland" LAT="47.194783" LNG="7.447997000000001" NAME="Altreu, Mitte"/><Location ADDR="Altreu, Nord, 2545 Selzach, Switzerland" LAT="47.19767" LNG="7.447826" NAME="Altreu, Nord"/><Location ADDR="Altstätten, Switzerland" LAT="47.3774633" LNG="9.5469133" NAME="Altstätten Stadt"/><Location ADDR="Altstätten, Switzerland" LAT="47.3774633" LNG="9.5469133" NAME="Altstätten Stadt Gleisende"/><Location ADDR="Altstätten, Switzerland" LAT="47.3774633" LNG="9.5469133" NAME="Altstätten SG"/><Location ADDR="Allmendeweg, 6830 Rankweil, Austria" LAT="47.2868435" LNG="9.585151800000002" NAME="Altstätten SG, Allmend"/><Location ADDR="Altstätten SG, Altersh. Forst, 9450 Altstätten, Switzerland" LAT="47.367816" LNG="9.537238" NAME="Altstätten SG, Altersh. Forst"/><Location ADDR="Bächler, 9450 Altstätten, Switzerland" LAT="47.3904778" LNG="9.538354799999999" NAME="Altstätten SG, Bächler"/><Location ADDR="Bahnhof, 9465 Sennwald, Switzerland" LAT="47.24247880000001" LNG="9.5029416" NAME="Altstätten SG, Bahnhof"/><Location ADDR="Baumert, 9450 Altstätten, Switzerland" LAT="47.38572509999999" LNG="9.518475900000002" NAME="Altstätten SG, Baumert"/><Location ADDR="Breite, 9450 Altstätten, Switzerland" LAT="47.3788431" LNG="9.537814899999999" NAME="Altstätten SG, Breite"/><Location ADDR="Altstätten SG, Depot, 9450 Altstätten, Switzerland" LAT="47.380495" LNG="9.545022999999999" NAME="Altstätten SG, Depot"/><Location ADDR="Eichbergerstrasse, Altstätten, Switzerland" LAT="47.3675216" LNG="9.5427181" NAME="Altstätten SG, Eichbergerstr."/><Location ADDR="Ergeten, 9450 Altstätten, Switzerland" LAT="47.386059" LNG="9.5125861" NAME="Altstätten SG, Ergeten"/><Location ADDR="Altstätten SG, Ergeten-Loch, 9450 Altstätten, Switzerland" LAT="47.385347" LNG="9.509604" NAME="Altstätten SG, Ergeten-Loch"/><Location ADDR="Feldstrasse, 9464 Altstätten, Switzerland" LAT="47.2743557" LNG="9.5152938" NAME="Altstätten SG, Feldstrasse"/><Location ADDR="Fleuben, 9450 Altstätten, Switzerland" LAT="47.3593556" LNG="9.5517798" NAME="Altstätten SG, Fleuben"/><Location ADDR="Hirschenweg, 9462 Oberriet, Switzerland" LAT="47.3354191" LNG="9.5887242" NAME="Altstätten SG, Hirschen"/><Location ADDR="Kapf, 9450 Altstätten, Switzerland" LAT="47.3930827" LNG="9.550652099999999" NAME="Altstätten SG, Kapf"/><Location ADDR="Im Klosterguet, 9450 Altstätten, Switzerland" LAT="47.3772651" LNG="9.5513772" NAME="Altstätten SG, Klosterguet"/><Location ADDR="Altstätten SG, Oberkirlen, 9450 Altstätten, Switzerland" LAT="47.375567" LNG="9.553265" NAME="Altstätten SG, Oberkirlen"/><Location ADDR="Postweg, 9437 Marbach, Switzerland" LAT="47.3919905" LNG="9.5699952" NAME="Altstätten SG, Post"/><Location ADDR="Rathauspl., 9450 Altstätten, Switzerland" LAT="47.37832849999999" LNG="9.5407991" NAME="Altstätten SG, Rathaus"/><Location ADDR="Ruppen, 9450 Altstätten, Switzerland" LAT="47.391832" LNG="9.511179" NAME="Altstätten SG, Ruppen"/><Location ADDR="Ruppendörfli, 9450 Altstätten, Switzerland" LAT="47.38959699999999" LNG="9.5086873" NAME="Altstätten SG, Ruppendörfli"/><Location ADDR="Ruppenhalde, 9450 Altstätten, Switzerland" LAT="47.3883839" LNG="9.5135731" NAME="Altstätten SG, Ruppenhalde"/><Location ADDR="Altstätten SG, Sägentobel, 9450 Altstätten, Switzerland" LAT="47.390091" LNG="9.523939" NAME="Altstätten SG, Sägentobel"/><Location ADDR="Altstätten SG, Schulhaus Klaus, 9450 Altstätten, Switzerland" LAT="47.376724" LNG="9.542608999999999" NAME="Altstätten SG, Schulhaus Klaus"/><Location ADDR="Schöntalstrasse, 9450 Altstätten, Switzerland" LAT="47.3806864" LNG="9.547328499999999" NAME="Altstätten SG, Schöntal"/><Location ADDR="Altstätten SG, Spital/Heime, 9450 Altstätten, Switzerland" LAT="47.38123" LNG="9.541713999999999" NAME="Altstätten SG, Spital/Heime"/><Location ADDR="Altstätterstrasse, 9451 Oberriet, Switzerland" LAT="47.3653505" LNG="9.5987809" NAME="Altstätten SG, Stadt"/><Location ADDR="Tannenbaum, 9450 Altstätten, Switzerland" LAT="47.3867989" LNG="9.5209837" NAME="Altstätten SG, Tannenbaum"/><Location ADDR="Altstätten SG, Traube, 9450 Altstätten, Switzerland" LAT="47.384473" LNG="9.537536" NAME="Altstätten SG, Traube"/><Location ADDR="Altstätten SG, Unterlitten, 9450 Altstätten, Switzerland" LAT="47.374239" LNG="9.549623" NAME="Altstätten SG, Unterlitten"/><Location ADDR="Altstätten SG, Wieswanne, 9450 Altstätten, Switzerland" LAT="47.387106" LNG="9.539693999999999" NAME="Altstätten SG, Wieswanne"/><Location ADDR="Altstätten SG, Ziel-Kornberg, 9450 Altstätten, Switzerland" LAT="47.389005" LNG="9.53476" NAME="Altstätten SG, Ziel-Kornberg"/><Location ADDR="Altwis, Switzerland" LAT="47.2381254" LNG="8.2514874" NAME="Altwis"/><Location ADDR="Alvaneu, Albula/Alvra, Switzerland" LAT="46.67868" LNG="9.645909999999999" NAME="Alvaneu"/><Location ADDR="Alvaneu Bad, Badezentrum, 7473 Albula/Alvra, Switzerland" LAT="46.669527" LNG="9.649955" NAME="Alvaneu Bad, Badezentrum"/><Location ADDR="Alvaneu Bad, Dorfplatz, 7473 Albula/Alvra, Switzerland" LAT="46.668273" LNG="9.6464" NAME="Alvaneu Bad, Dorfplatz"/><Location ADDR="Alvaneu Bad, Solas, 7473 Albula/Alvra, Switzerland" LAT="46.672158" LNG="9.661802999999999" NAME="Alvaneu Bad, Solas"/><Location ADDR="Alvaneu Dorf, Crappa Naira, 7492 Albula/Alvra, Switzerland" LAT="46.672687" LNG="9.629376" NAME="Alvaneu Dorf, Crappa Naira"/><Location ADDR="Alvaneu Dorf, Dorfplatz, 7492 Albula/Alvra, Switzerland" LAT="46.678773" LNG="9.647928" NAME="Alvaneu Dorf, Dorfplatz"/><Location ADDR="Alvaneu, Albula/Alvra, Switzerland" LAT="46.67868" LNG="9.645909999999999" NAME="Alvaneu, Bahnhof"/><Location ADDR="Dorf, 7431 Mutten, Switzerland" LAT="46.6783227" LNG="9.4994523" NAME="Alvaschein, Dorf"/><Location ADDR="Alvaschein, Gipsmühle, 7451 Albula/Alvra, Switzerland" LAT="46.673338" LNG="9.561734" NAME="Alvaschein, Gipsmühle"/><Location ADDR="Solisbrücke, 7451 Albula/Alvra, Switzerland" LAT="46.67920549999999" LNG="9.5323575" NAME="Alvaschein, Solisbrücke"/><Location ADDR="Am Bach (Avers), 7447 Avers, Switzerland" LAT="46.45349" LNG="9.5481" NAME="Am Bach (Avers)"/><Location ADDR="Ambilly, Acacias-TAC, 74100 Ambilly, France" LAT="46.191813" LNG="6.220695999999999" NAME="Ambilly, Acacias-TAC"/><Location ADDR="Croix d'Ambilly, 74100 Ambilly, France" LAT="46.191818" LNG="6.224742" NAME="Ambilly, Croix d'Ambilly"/><Location ADDR="Rue Emile Millet, 74240 Gaillard, France" LAT="46.1922009" LNG="6.2177159" NAME="Ambilly, Millet"/><Location ADDR="Parc La Fantasia, 74100 Annemasse, France" LAT="46.191759" LNG="6.227077599999999" NAME="Ambilly, Parc la Fantasia"/><Location ADDR="Ambrì-Piotta, 6775 Quinto, Switzerland" LAT="46.510617" LNG="8.690151" NAME="Ambrì-Piotta"/><Location ADDR="Ambrì-Piotta, Stazione, 6775 Quinto, Switzerland" LAT="46.51065699999999" LNG="8.689760999999999" NAME="Ambrì-Piotta, Stazione"/><Location ADDR="Ambrì, centro scolastico, 6775 Quinto, Switzerland" LAT="46.510333" LNG="8.688164" NAME="Ambrì, centro scolastico"/><Location ADDR="Ambrì Sotto, 6775 Quinto, Switzerland" LAT="46.5078484" LNG="8.7031562" NAME="Ambrì, sotto"/><Location ADDR="Alla Chiesa, 6775 Quinto, Switzerland" LAT="46.5090564" LNG="8.6949983" NAME="Ambrì, Chiesa"/><Location ADDR="Amden SBA, 8873 Amden, Switzerland" LAT="47.149784" LNG="9.14327" NAME="Amden SBA"/><Location ADDR="Bellevue, 8873 Amden, Switzerland" LAT="47.1432501" LNG="9.1270024" NAME="Amden, Bellevue"/><Location ADDR="Brugg, 9656 Alt St. Johann, Switzerland" LAT="47.1856472" LNG="9.250203899999999" NAME="Amden, Brugg"/><Location ADDR="Forten, 8873 Amden, Switzerland" LAT="47.145048" LNG="9.133156399999999" NAME="Amden, Forten"/><Location ADDR="Hinterstein, 8873 Amden, Switzerland" LAT="47.1519358" LNG="9.1547592" NAME="Amden, Hinterstein"/><Location ADDR="Lehni, 8873 Amden, Switzerland" LAT="47.1405789" LNG="9.1306726" NAME="Amden, Lehni"/><Location ADDR="Mennweg, 8873 Amden, Switzerland" LAT="47.1491836" LNG="9.1541769" NAME="Amden, Mennweg"/><Location ADDR="Montana, 8873 Amden, Switzerland" LAT="47.1466881" LNG="9.1360189" NAME="Amden, Montana"/><Location ADDR="Post, 8874 Mühlehorn, Switzerland" LAT="47.1174932" LNG="9.173373" NAME="Amden, Post"/><Location ADDR="Sell, 8873 Amden, Switzerland" LAT="47.1605514" LNG="9.1868362" NAME="Amden, Sell"/><Location ADDR="Amden, Soldanella, 8873 Amden, Switzerland" LAT="47.15122" LNG="9.159181" NAME="Amden, Soldanella"/><Location ADDR="Stocksittenstrasse, 8873 Amden, Switzerland" LAT="47.1473019" LNG="9.1550794" NAME="Amden, Stocksitten"/><Location ADDR="Vorderdorf, 8877 Quarten, Switzerland" LAT="47.1130353" LNG="9.216755" NAME="Amden, Vorderdorf"/><Location ADDR="Aminona, 3963, Switzerland" LAT="46.33147" LNG="7.532870000000001" NAME="Aminona"/><Location ADDR="Amlikon, Mitte, 8514 Amlikon-Bissegg, Switzerland" LAT="47.569156" LNG="9.0563" NAME="Amlikon, Mitte"/><Location ADDR="Oberdorf, 9565 Bussnang, Switzerland" LAT="47.5568006" LNG="9.0852374" NAME="Amlikon, Oberdorf"/><Location ADDR="Unterdorf, 9562 Affeltrangen, Switzerland" LAT="47.5321596" LNG="9.052346499999999" NAME="Amlikon, Unterdorf"/><Location ADDR="Dorfpl., 5600 Ammerswil, Switzerland" LAT="47.3694658" LNG="8.2072678" NAME="Ammerswil AG, Dorfplatz"/><Location ADDR="Kirchenweg, 5606 Dintikon, Switzerland" LAT="47.3651548" LNG="8.221477499999999" NAME="Ammerswil AG, Kirche"/><Location ADDR="Rebrainstrasse, 5600 Ammerswil, Switzerland" LAT="47.3706188" LNG="8.2032785" NAME="Ammerswil AG, Rebrain"/><Location ADDR="Ammerswil AG, Rütli, 5600 Ammerswil, Switzerland" LAT="47.369286" LNG="8.204594" NAME="Ammerswil AG, Rütli"/><Location ADDR="Waaggasse, 5504 Othmarsingen, Switzerland" LAT="47.3995274" LNG="8.217142899999999" NAME="Ammerswil AG, Waagplatz"/><Location ADDR="Ammerzwilstrasse, 3257 Grossaffoltern, Switzerland" LAT="47.0649514" LNG="7.352259199999999" NAME="Ammerzwil BE, Dorf"/><Location ADDR="Sandhubel, 3257 Grossaffoltern, Switzerland" LAT="47.06712170000001" LNG="7.343691699999999" NAME="Ammerzwil BE, Sandhubel"/><Location ADDR="Unterdorf, 3257 Grossaffoltern, Switzerland" LAT="47.0687276" LNG="7.33823" NAME="Ammerzwil BE, Unterdorf"/><Location ADDR="Amriswil, Switzerland" LAT="47.5449717" LNG="9.300240900000002" NAME="Amriswil"/><Location ADDR="Almensberg, 8580 Amriswil, Switzerland" LAT="47.5337576" LNG="9.3297271" NAME="Amriswil, Almensberg"/><Location ADDR="Bahnhofstrasse, 8580 Amriswil, Switzerland" LAT="47.5479919" LNG="9.302211" NAME="Amriswil, Bahnhof"/><Location ADDR="Untere Grenzstrasse, 8580 Amriswil, Switzerland" LAT="47.5489441" LNG="9.2887503" NAME="Amriswil, Grenzstrasse"/><Location ADDR="Amriswil, Güetli, 8580 Amriswil, Switzerland" LAT="47.545136" LNG="9.292916" NAME="Amriswil, Güetli"/><Location ADDR="Hemmerswil, 9322 Egnach, Switzerland" LAT="47.54439" LNG="9.34121" NAME="Amriswil, Hemmerswil"/><Location ADDR="Kirchstrasse, 8580 Amriswil, Switzerland" LAT="47.5477638" LNG="9.2991536" NAME="Amriswil, Kirchstrasse"/><Location ADDR="Amriswil, Köpplishaus, 8580 Amriswil, Switzerland" LAT="47.54489299999999" LNG="9.28168" NAME="Amriswil, Köpplishaus"/><Location ADDR="Maihaldenstrasse, 8580 Amriswil, Switzerland" LAT="47.5451614" LNG="9.307578" NAME="Amriswil, Maihalde"/><Location ADDR="Marktpl., 8580 Amriswil, Switzerland" LAT="47.5449717" LNG="9.300240900000002" NAME="Amriswil, Marktplatz"/><Location ADDR="InvalidPoint" LAT="0.0" LNG="0.0" NAME="Ackersand Süd"/><Location ADDR="InvalidPoint" LAT="0.0" LNG="0.0" NAME="Adelrain (Abzw)"/><Location ADDR="Älpli, 9613, Switzerland" LAT="47.3582837" LNG="8.980978799999999" NAME="Aelpli"/><Location ADDR="InvalidPoint" LAT="0.0" LNG="0.0" NAME="Aeschau, Gärtnerei"/><Location ADDR="Grossacher, 5642 Mühlau, Switzerland" LAT="47.2408233" LNG="8.384732" NAME="Aeugst am Albis, Grossacher"/><Location ADDR="Lilienberg, 8910, Switzerland" LAT="47.2781291" LNG="8.4658766" NAME="Affoltern a. A., Lilienberg"/><Location ADDR="Airolo, Pian Secco Belvédère, 6780 Airolo, Switzerland" LAT="46.535429" LNG="8.574619" NAME="Airolo, Pian Secco Belvédère"/><Location ADDR="InvalidPoint" LAT="0.0" LNG="0.0" NAME="Al Motto (c bin)"/><Location ADDR="Albinenleitern LLAT, 3955 Albinen, Switzerland" LAT="46.36102" LNG="7.622914000000001" NAME="Albinenleitern LLAT"/><Location ADDR="InvalidPoint" LAT="0.0" LNG="0.0" NAME="Algetshausen-Henau"/><Location ADDR="InvalidPoint" LAT="0.0" LNG="0.0" NAME="Alle centre agricult d'Ajoie"/><Location ADDR="InvalidPoint" LAT="0.0" LNG="0.0" NAME="Alp Dado (Bergstation)"/><Location ADDR="InvalidPoint" LAT="0.0" LNG="0.0" NAME="Alp Dado (Talstation Fil)"/><Location ADDR="InvalidPoint" LAT="0.0" LNG="0.0" NAME="Altmatt, Hauptstrasse"/><Location ADDR="InvalidPoint" LAT="0.0" LNG="0.0" NAME="Alvaschein Blockstelle"/><Location ADDR="InvalidPoint" LAT="0.0" LNG="0.0" NAME="Aminona CMA"/><Location ADDR="InvalidPoint" LAT="0.0" LNG="0.0" NAME="Amphion-les-Bains CGN"/><Location ADDR="Kronbergstrasse, 8580 Amriswil, Switzerland" LAT="47.55521410000001" LNG="9.2932045" NAME="Amriswil, Kronberg"/><Location ADDR="Mühlebachweg, 8580 Amriswil, Switzerland" LAT="47.5461998" LNG="9.2782122" NAME="Amriswil, Mühlebach"/><Location ADDR="Säntisstrasse, 8580 Amriswil, Switzerland" LAT="47.54701559999999" LNG="9.3073102" NAME="Amriswil, Säntisstrasse"/><Location ADDR="St. Gallerstrasse, 8580 Amriswil, Switzerland" LAT="47.5417712" LNG="9.297989" NAME="Amriswil, St. Gallerstrasse"/><Location ADDR="Weiherstrasse, 8580 Amriswil, Switzerland" LAT="47.5520207" LNG="9.2972418" NAME="Amriswil, Weiherstrasse"/><Location ADDR="Amriswil, Zentrum, 8580 Amriswil, Switzerland" LAT="47.546387" LNG="9.301862" NAME="Amriswil, Zentrum"/><Location ADDR="Bei der Kirche, 3647 Reutigen, Switzerland" LAT="46.69309459999999" LNG="7.620093300000001" NAME="Amsoldingen, Kirche"/><Location ADDR="Kreuzgasse, 3638 Pohlern, Switzerland" LAT="46.7226455" LNG="7.5414314" NAME="Amsoldingen, Kreuz"/><Location ADDR="Sandgrube, 3633 Amsoldingen, Switzerland" LAT="46.7216946" LNG="7.5854725" NAME="Amsoldingen, Sandgrube"/><Location ADDR="Seestrasse, Thun, Switzerland" LAT="46.74781369999999" LNG="7.6328909" NAME="Amsoldingen, See"/><Location ADDR="Steghalten, 3633 Amsoldingen, Switzerland" LAT="46.732262" LNG="7.584243399999999" NAME="Amsoldingen, Steghalten"/><Location ADDR="InvalidPoint" LAT="0.0" LNG="0.0" NAME="Amsteg Grund (Agl)"/><Location ADDR="InvalidPoint" LAT="0.0" LNG="0.0" NAME="Amsteg Kabelstollen Ost"/><Location ADDR="InvalidPoint" LAT="0.0" LNG="0.0" NAME="Amsteg Kabelstollen West"/><Location ADDR="InvalidPoint" LAT="0.0" LNG="0.0" NAME="Amsteg LAA"/><Location ADDR="InvalidPoint" LAT="0.0" LNG="0.0" NAME="Amsteg Zugangsstollen West"/><Location ADDR="Amsteg, 6474 Gurtnellen, Switzerland" LAT="46.770757" LNG="8.6673999" NAME="Amsteg-Silenen"/><Location ADDR="InvalidPoint" LAT="0.0" LNG="0.0" NAME="Amsteg, Post"/><Location ADDR="Amsteg, Schulhaus, 6474 Silenen, Switzerland" LAT="46.772189" LNG="8.670036" NAME="Amsteg, Schulhaus"/><Location ADDR="St Anton am Arlberg, Austria" LAT="47.1296346" LNG="10.2681786" NAME="Amsteg, St. Anton"/><Location ADDR="Zeughaus, 6474 Amsteg, Switzerland" LAT="46.7729965" LNG="8.6660864" NAME="Amsteg, Zeughaus"/><Location ADDR="Andeer, posta, 7440 Andeer, Switzerland" LAT="46.602132" LNG="9.42663" NAME="Andeer, posta"/><Location ADDR="Bärenburg, 7440 Andeer, Switzerland" LAT="46.5937665" LNG="9.428496899999999" NAME="Andeer, Bärenburg"/><Location ADDR="Andeer, Heilbad, 7440 Andeer, Switzerland" LAT="46.605071" LNG="9.426829" NAME="Andeer, Heilbad"/><Location ADDR="Andeer, Pignia, 7443 Pignia, Switzerland" LAT="46.611779" LNG="9.437365999999999" NAME="Andeer, Pignia"/><Location ADDR="Andeer, Rofflaschlucht, 7440 Andeer, Switzerland" LAT="46.58204600000001" LNG="9.421546" NAME="Andeer, Rofflaschlucht"/><Location ADDR="Tgavugl, 7433 Casti-Wergenstein, Switzerland" LAT="46.6222183" LNG="9.3916933" NAME="Andeer, Tgavugl"/><Location ADDR="Andelfingen, Switzerland" LAT="47.59482879999999" LNG="8.6789566" NAME="Andelfingen"/><Location ADDR="Andelfingen, Bahnhof, 8450 Andelfingen, Switzerland" LAT="47.5938672" LNG="8.6777906" NAME="Andelfingen, Bahnhof"/><Location ADDR="Andermatt, Switzerland" LAT="46.6339116" LNG="8.5935627" NAME="Andermatt"/><Location ADDR="Andermatt (Gemsstockbahn), 6490 Andermatt, Switzerland" LAT="46.63253599999999" LNG="8.591783999999999" NAME="Andermatt (Gemsstockbahn)"/><Location ADDR="Bahnhof, 6493 Hospental, Switzerland" LAT="46.6209784" LNG="8.5713913" NAME="Andermatt, Bahnhof"/><Location ADDR="Bodenstrasse, 6490 Andermatt, Switzerland" LAT="46.6344049" LNG="8.589871" NAME="Andermatt, Bodenstrasse"/><Location ADDR="Andermatt, Switzerland" LAT="46.6339116" LNG="8.5935627" NAME="Andermatt, Gemeindehaus"/><Location ADDR="Andermatt (Gemsstockbahn), 6490 Andermatt, Switzerland" LAT="46.63253599999999" LNG="8.591783999999999" NAME="Andermatt, Gemsstockbahn"/><Location ADDR="Andermatt, Kreisel Oberalp Süd, 6490 Andermatt, Switzerland" LAT="46.63452299999999" LNG="8.596345" NAME="Andermatt, Kreisel Oberalp Süd"/><Location ADDR="Andermatt, Krone, 6490 Andermatt, Switzerland" LAT="46.633193" LNG="8.596147" NAME="Andermatt, Krone"/><Location ADDR="Andermatt, Oberwiler, 6490 Andermatt, Switzerland" LAT="46.636563" LNG="8.600933999999999" NAME="Andermatt, Oberwiler"/><Location ADDR="Poststrasse, 6490 Andermatt, Switzerland" LAT="46.6349276" LNG="8.595742999999999" NAME="Andermatt, Poststrasse"/><Location ADDR="Andermatt, Tourist Info, 6490 Andermatt, Switzerland" LAT="46.636858" LNG="8.594918999999999" NAME="Andermatt, Tourist Info"/><Location ADDR="Andermatt, Unterwiler 1, 6490 Andermatt, Switzerland" LAT="46.635281" LNG="8.601403" NAME="Andermatt, Unterwiler 1"/><Location ADDR="Andermatt, Unterwiler 2, 6490 Andermatt, Switzerland" LAT="46.63539" LNG="8.601314" NAME="Andermatt, Unterwiler 2"/><Location ADDR="Andiast, posta, 7159 Andiast, Switzerland" LAT="46.784445" LNG="9.113858" NAME="Andiast, posta"/><Location ADDR="S. Clau, 7156 Rueun, Switzerland" LAT="46.7755431" LNG="9.1472907" NAME="Andiast, S. Clau"/><Location ADDR="Grüenaustrasse, 9204 Andwil, Switzerland" LAT="47.4403862" LNG="9.2642627" NAME="Andwil SG, Grünau"/><Location ADDR="Lindenstrasse, 9204 Andwil, Switzerland" LAT="47.4409307" LNG="9.2727063" NAME="Andwil SG, Linden"/><Location ADDR="Otmarseggstrasse, 9204 Andwil, Switzerland" LAT="47.43694110000001" LNG="9.273401900000001" NAME="Andwil SG, Otmarsegg"/><Location ADDR="Postpl., 9204 Andwil, Switzerland" LAT="47.4392496" LNG="9.2708089" NAME="Andwil SG, Post"/><Location ADDR="Andwil, Switzerland" LAT="47.4392496" LNG="9.2708089" NAME="Andwil SG, St. Margreten"/><Location ADDR="Dorfstrasse, 8586 Birwinken, Switzerland" LAT="47.5669596" LNG="9.215845200000002" NAME="Andwil TG, Dorf"/><Location ADDR="Eckartshausen, 8586 Birwinken, Switzerland" LAT="47.5734151" LNG="9.2169559" NAME="Andwil TG, Eckartshausen"/><Location ADDR="Andwil TG, Volg, 8586 Birwinken, Switzerland" LAT="47.567009" LNG="9.215176999999999" NAME="Andwil TG, Volg"/><Location ADDR="Angeli-Custodi, 7741 Poschiavo, Switzerland" LAT="46.35811" LNG="10.06906" NAME="Angeli Custodi"/><Location ADDR="Brändliackerweg, 5611 Wohlen, Switzerland" LAT="47.36451" LNG="8.26984" NAME="Anglikon, Brändliacker"/><Location ADDR="Bursthalde, 5611 Wohlen, Switzerland" LAT="47.3665385" LNG="8.2612024" NAME="Anglikon, Bursthalde"/><Location ADDR="Kesselackerstrasse, 5611 Wohlen, Switzerland" LAT="47.36293" LNG="8.269879999999999" NAME="Anglikon, Kesselackerstrasse"/><Location ADDR="Knobelstrasse, 5611 Wohlen, Switzerland" LAT="47.3639047" LNG="8.2695153" NAME="Anglikon, Knobelstrasse"/><Location ADDR="Zentrumstrasse, 5607 Hägglingen, Switzerland" LAT="47.3868036" LNG="8.2526657" NAME="Anglikon, Zentrum"/><Location ADDR="Anières, Switzerland" LAT="46.2777904" LNG="6.224067900000001" NAME="Anières"/><Location ADDR="Anières, douane, 1247 Anières, Switzerland" LAT="46.268379" LNG="6.237959" NAME="Anières, douane"/><Location ADDR="Chemin de la Mairie, 1294 Genthod, Switzerland" LAT="46.2642714" LNG="6.1560107" NAME="Anières, mairie"/><Location ADDR="Anières, Switzerland" LAT="46.2777904" LNG="6.224067900000001" NAME="Anières, village"/><Location ADDR="Bassy, 1247 Anières, Switzerland" LAT="46.2800897" LNG="6.2304694" NAME="Anières, Bassy"/><Location ADDR="Chemin des Chavannes, 1247 Anières, Switzerland" LAT="46.2825765" LNG="6.2298579" NAME="Anières, Chavannes"/><Location ADDR="Chemin des Courbes, 1247 Anières, Switzerland" LAT="46.2822142" LNG="6.2281112" NAME="Anières, Courbes"/><Location ADDR="Chemin du Courson, 1247 Anières, Switzerland" LAT="46.2833367" LNG="6.2360003" NAME="Anières, Courson"/><Location ADDR="Anières, Foyer, 1247 Anières, Switzerland" LAT="46.27175400000001" LNG="6.232940999999999" NAME="Anières, Foyer"/><Location ADDR="Chemin de la Gravière, 1247 Anières, Switzerland" LAT="46.2891723" LNG="6.2365102" NAME="Anières, Gravière"/><Location ADDR="Chemin de la Marguerite, 1247 Anières, Switzerland" LAT="46.2739272" LNG="6.220111999999999" NAME="Anières, Marguerite"/><Location ADDR="Nant d'Aisy, Anières, Switzerland" LAT="46.271422" LNG="6.2167958" NAME="Anières, Nant-d'Aisy"/><Location ADDR="Anières, Sous-Chevrens, 1247 Anières, Switzerland" LAT="46.286637" LNG="6.234064" NAME="Anières, Sous-Chevrens"/><Location ADDR="Avenue de la Gare, 74100 Annemasse, France" LAT="46.1966771" LNG="6.2352341" NAME="Annemasse, gare"/><Location ADDR="Annemasse Poste, 74100 Annemasse, France" LAT="46.194801" LNG="6.233738" NAME="Annemasse, poste"/><Location ADDR="Annemasse, France" LAT="46.19325300000001" LNG="6.234158" NAME="Annemasse, Deffaugt"/><Location ADDR="Chemin du Jura, 1224 Chêne-Bougeries, Switzerland" LAT="46.201577" LNG="6.1869238" NAME="Annemasse, Jura"/><Location ADDR="Parc Montessuit, 74100 Annemasse, France" LAT="46.194225" LNG="6.231259" NAME="Annemasse, Parc Montessuit"/><Location ADDR="Antagnes, Glutières, 1867 Ollon, Switzerland" LAT="46.285358" LNG="7.012988999999999" NAME="Antagnes, Glutières"/><Location ADDR="Ausserdorfstrasse, 4465 Hemmiken, Switzerland" LAT="47.4884378" LNG="7.8986277" NAME="Anwil, Ausserdorf"/><Location ADDR="InvalidPoint" LAT="0.0" LNG="0.0" NAME="Anwil, Post"/><Location ADDR="Anwil, Talweiher, 4469 Anwil, Switzerland" LAT="47.451878" LNG="7.928643" NAME="Anwil, Talweiher"/><Location ADDR="Anzère TAPM, 1972 Ayent, Switzerland" LAT="46.295258" LNG="7.394883" NAME="Anzère TAPM"/><Location ADDR="Anzère, poste, 1972 Ayent, Switzerland" LAT="46.295807" LNG="7.396427" NAME="Anzère, poste"/><Location ADDR="Place de la Télécabine, 1972 Ayent, Switzerland" LAT="46.29555999999999" LNG="7.394699999999999" NAME="Anzère, télécabine"/><Location ADDR="Anzère, village sud, 1972 Ayent, Switzerland" LAT="46.296573" LNG="7.399904999999999" NAME="Anzère, village sud"/><Location ADDR="Anzère, Pra Combère, 1972 Ayent, Switzerland" LAT="46.322667" LNG="7.434761" NAME="Anzère, Pra Combère"/><Location ADDR="Route de Pralan, 1972 Ayent, Switzerland" LAT="46.3010046" LNG="7.4061466" NAME="Anzère, Pralan"/><Location ADDR="Calonico, Anzonico, Switzerland" LAT="46.4417448" LNG="8.855316" NAME="Anzonico, Bv. Calonico"/><Location ADDR="Zona Paese, 6745 Giornico, Switzerland" LAT="46.4031652" LNG="8.8769045" NAME="Anzonico, Paese"/><Location ADDR="Aosta, Autostazione, 11100 Aosta, Italy" LAT="45.735423" LNG="7.32505" NAME="Aosta, Autostazione"/><Location ADDR="Appenzell District, Switzerland" LAT="47.33493199999999" LNG="9.406594" NAME="Appenzell"/><Location ADDR="Enggenhütten, 9054, Switzerland" LAT="47.3530257" LNG="9.362347399999999" NAME="Appenzell Enggenhütten"/><Location ADDR="Meistersrüte, 9050 Appenzell, Switzerland" LAT="47.3543317" LNG="9.4403355" NAME="Appenzell Meistersrüte, H'berg"/><Location ADDR="Schlatt, 9050 Schlatt-Haslen, Switzerland" LAT="47.35668" LNG="9.39631" NAME="Appenzell Schlatt"/><Location ADDR="Appenzell Steinegg, Steinegg, 9050 Rüte, Switzerland" LAT="47.320677" LNG="9.430190999999999" NAME="Appenzell Steinegg, Steinegg"/><Location ADDR="Adlerstrasse, 9466 Sennwald, Switzerland" LAT="47.25677049999999" LNG="9.494665999999999" NAME="Appenzell, Adlerplatz"/><Location ADDR="Alpsteinstrasse, 9050 Rüte, Switzerland" LAT="47.3311778" LNG="9.4255702" NAME="Appenzell, Alpsteinstrasse"/><Location ADDR="Bahnhofstrasse, 9050 Appenzell, Switzerland" LAT="47.3270429" LNG="9.4096297" NAME="Appenzell, Bahnhof"/><Location ADDR="Appenzell, Bleichenwald, 9050 Rüte, Switzerland" LAT="47.337659" LNG="9.425253" NAME="Appenzell, Bleichenwald"/><Location ADDR="Bleuer, 9050 Rüte, Switzerland" LAT="47.3310577" LNG="9.4451486" NAME="Appenzell, Bleuer"/><Location ADDR="Appenzell District, Switzerland" LAT="47.33493199999999" LNG="9.406594" NAME="Appenzell, Hallenbad"/><Location ADDR="Appenzell, Hirschberg Station, 9050 Rüte, Switzerland" LAT="47.332325" LNG="9.420978" NAME="Appenzell, Hirschberg Station"/><Location ADDR="Kaustrasse, 9050 Appenzell, Switzerland" LAT="47.3278754" LNG="9.394506699999999" NAME="Appenzell, Kau"/><Location ADDR="Kreuzhof, 9050 Rüte, Switzerland" LAT="47.3333555" LNG="9.4146741" NAME="Appenzell, Kreuzhof"/><Location ADDR="Kreuzstrasse, 9450 Altstätten, Switzerland" LAT="47.3645188" LNG="9.5049235" NAME="Appenzell, Kreuzstrasse"/><Location ADDR="Appenzell, Lädeli, 9050 Rüte, Switzerland" LAT="47.334809" LNG="9.454714000000001" NAME="Appenzell, Lädeli"/><Location ADDR="Landsgemeindepl., 9050 Appenzell, Switzerland" LAT="47.3315687" LNG="9.4074666" NAME="Appenzell, Landsgemeindeplatz"/><Location ADDR="Lank, 9050 Appenzell, Switzerland" LAT="47.34485400000001" LNG="9.398407299999999" NAME="Appenzell, Lank"/><Location ADDR="Lehn, 9053 Teufen, Switzerland" LAT="47.38264359999999" LNG="9.4070637" NAME="Appenzell, Lehn"/><Location ADDR="Meistersrüte, 9050 Appenzell, Switzerland" LAT="47.3543317" LNG="9.4403355" NAME="Appenzell, Meistersrüte"/><Location ADDR="Appenzell, Mettlenbrücke, 9050 Appenzell, Switzerland" LAT="47.335843" LNG="9.40577" NAME="Appenzell, Mettlenbrücke"/><Location ADDR="Mohren, 9050 Rüte, Switzerland" LAT="47.3319674" LNG="9.4392319" NAME="Appenzell, Moren"/><Location ADDR="Appenzell District, Switzerland" LAT="47.33493199999999" LNG="9.406594" NAME="Appenzell, Obere Steinegg"/><Location ADDR="Rapisau, 9050 Gonten, Switzerland" LAT="47.34343" LNG="9.38635" NAME="Appenzell, Rapisau"/><Location ADDR="Schönenbüel, 9053 Teufen, Switzerland" LAT="47.38320479999999" LNG="9.3820892" NAME="Appenzell, Schönenbüel"/><Location ADDR="Sonnenhalb, 9050 Schwende, Switzerland" LAT="47.3095817" LNG="9.4185746" NAME="Appenzell, Sonnenhalb"/><Location ADDR="Krankenhausstrasse, 9053 Teufen, Switzerland" LAT="47.3923629" LNG="9.390750299999999" NAME="Appenzell, Spital"/><Location ADDR="Steig, 9057 Schwende, Switzerland" LAT="47.307114" LNG="9.4372665" NAME="Appenzell, Steig"/><Location ADDR="Unterrain, 9053 Teufen, Switzerland" LAT="47.390884" LNG="9.3828201" NAME="Appenzell, Unterrain"/><Location ADDR="Unterschlatt, 9050 Schlatt-Haslen, Switzerland" LAT="47.3517419" LNG="9.388957999999999" NAME="Appenzell, Unterschlatt"/><Location ADDR="Appenzell District, Switzerland" LAT="47.33493199999999" LNG="9.406594" NAME="Appenzell, Zentrale"/><Location ADDR="Zielstrasse, 9050 Appenzell, Switzerland" LAT="47.33363420000001" LNG="9.4077786" NAME="Appenzell, Ziel"/><Location ADDR="Apples, Ikot Ekpene Rd, Uyo, Nigeria" LAT="5.0353973" LNG="7.925615199999999" NAME="Apples"/><Location ADDR="Apples, Hôtel de Commune, 1143 Apples, Switzerland" LAT="46.552238" LNG="6.427834" NAME="Apples, Hôtel de Commune"/><Location ADDR="La Mottaz, 1143 Apples, Switzerland" LAT="46.545813" LNG="6.4329752" NAME="Apples, La Mottaz"/><Location ADDR="Aprica SO, Italy" LAT="46.1539586" LNG="10.1523763" NAME="Aprica, centro"/><Location ADDR="InvalidPoint" LAT="0.0" LNG="0.0" NAME="Aprica, posta"/><Location ADDR="23031 Liscedo SO, Italy" LAT="46.1478429" LNG="10.1220837" NAME="Aprica, Liscedo"/><Location ADDR="S.Pietro, 23031 Aprica SO, Italy" LAT="46.1511594" LNG="10.1594954" NAME="Aprica, S. Pietro"/><Location ADDR="Aproz, bif. Bieudron, 1996 Nenda